name,amenity,highway,barrier,landuse,lat,lon
Nijjarpura,,,toll_booth,,31.5775376,74.9972082
Petrol Pump,fuel,,,,30.8740597,75.8586854
Ansal Plaza;Basant,restaurant,,,,30.8974153,75.820184
HKG,fuel,,,,30.8842659,75.8079494
Vashi Toll Plaza,,,toll_booth,,19.0641486,72.9804748
Petrol Bunk,fuel,,,,13.6294533,79.4390308
Sonampetty,,,toll_booth,,14.6937783,79.9788645
Copper Chimney,restaurant,,,,18.927571,72.8325747
Premier,parking,,,,18.942228,72.8272935
Liberty,parking,,,,18.9424,72.8269
Qamar,parking,,,,18.9567099,72.8369017
Kemp's Corner,parking,,,,18.9643233,72.8058471
Milan International,parking,,,,19.0880891,72.8416913
Jayashree,parking,,,,19.0934661,72.8505495
Arsa,parking,,,,19.1174006,72.8501748
The Retreat,parking,,,,19.1472915,72.7896577
Royal Shelter,parking,,,,19.1824,72.8435
Malout,restaurant,,,,30.1902559,74.5001207
Petrol Pump,fuel,,,,30.8598353,75.8590925
SREC Canteen,restaurant,,,,11.1017133,76.9664263
Reliance,fuel,,,,11.2575595,77.5511245
B6 Inn,restaurant,,,,8.5563511,76.8761007
Snack Corner,restaurant,,,,12.8984603,77.6010688
Athicas Canteen,fast_food,,,,12.894213,77.6025681
HP,fuel,,,,13.0368733,80.2555597
IOC,fuel,,,,13.037841,80.2562967
BP,fuel,,,,13.0378885,80.2569506
Indian Oil,fuel,,,,28.4892384,77.0909884
HP,fuel,,,,8.5110238,76.9627206
Buraq,restaurant,,,,8.511711,76.9636564
Bharat Petrol,fuel,,,,8.5076353,76.9621048
Indian Coffee House,restaurant,,,,8.5049265,76.9535723
Guest House,restaurant,,,,8.5587565,76.8809894
sri gavuri nivas,restaurant,,,,8.5231268,76.9297678
Nemili,,,toll_booth,,12.9818087,79.9692083
The Great Kabab Factory,restaurant,,,,12.9946821,80.1874068
Bharat Petroleum,fuel,,,,12.9943244,80.1870765
Bharat Petroleum,fuel,,,,28.4324009,77.0478668
Indian Oil,fuel,,,,28.4255168,77.0373704
Darbar,fast_food,,,,28.4528666,77.0406221
McDonald's,fast_food,,,,28.5574267,77.1635699
Hindustan Petroleum,fuel,,,,28.4767267,77.0664904
Indian Oil,fuel,,,,28.4672528,77.0371571
Bikanervala,fast_food,,,,28.4689302,77.0638804
Park Baluchi,restaurant,,,,28.4684904,77.0644002
Domino's,fast_food,,,,28.4113681,77.0432317
Meals House,fast_food,,,,12.8696335,77.6540449
Food n Drinks,fast_food,,,,12.8507304,77.6573836
Evolve Electronic City,restaurant,,,,12.8456194,77.6588954
Karamsar Petrol Pump,fuel,,,,30.7298205,75.9533439
Indian Oil,fuel,,,,28.4946609,77.150715
Indian Oil,fuel,,,,28.5043431,77.1719993
IBP Petrol Station,fuel,,,,28.4554895,77.0285383
Expressway Toll,,,toll_booth,,28.3954313,76.9820455
Tara,restaurant,,,,16.6853143,74.4646432
Cafe Green,restaurant,,,,16.6938217,74.459177
Chowdary tea stall,restaurant,,,,16.6936284,74.460579
Panchshila Service Station,fuel,,,,28.5614441,77.2227829
Indian Oil Corportation,fuel,,,,28.6043612,77.3230956
Bharat Petroleum,fuel,,,,28.6345574,77.3154765
Indian Oil,fuel,,,,28.659564,77.3550818
Indian Oil,fuel,,,,28.5336932,77.1070198
Indian Oil,fuel,,,,28.6394831,77.4249813
Bharat Petroleum,fuel,,,,28.6041804,77.3233182
Indian Oil Petrol Pump,fuel,,,,28.6438531,77.3170505
Indian Oil,fuel,,,,28.6552668,77.3472686
Indian Oil,fuel,,,,28.6588641,77.3538527
Indian Oil,fuel,,,,28.3818927,76.9672657
Petrol Pump Indian Oil,fuel,,,,28.3926607,76.9783194
Petrol Pump Indian Oil,fuel,,,,28.4098097,76.9929142
Petrol Pump IBP,fuel,,,,28.4192219,76.997265
Magar Petrol Pump,fuel,,,,18.5152532,73.9330133
Earls Secret,restaurant,,,,11.4201722,76.6983592
Indian Oil,fuel,,,,28.5262695,77.1561648
Needle Industries,,,,industrial,11.3796749,76.7454809
Milk Dairy,,,,industrial,11.4068526,76.7138076
Bharat Petroleum,fuel,,,,11.3791939,76.7469386
Greenfield,restaurant,,,,11.345378,76.7994117
Annapoorna Hotel,restaurant,,,,11.0234529,76.9780253
Vijayamangalam Toll,,,toll_booth,,11.2455055,77.5197126
McDonald's,fast_food,,,,18.5457237,73.9062599
The Charcoal Pit,restaurant,,,,18.5167868,73.8791405
The Great Punjab,restaurant,,,,18.5364098,73.8973015
Roshini Petrol Pump,fuel,,,,18.539254,73.885693
Hindustan Photo Films New Plant,,,,industrial,11.4283926,76.6643598
World's Highest Altitude Retail Pump,fuel,,,,32.227631,78.0699447
Pug mark,restaurant,,,,11.7034867,76.6407459
Bandipur plaza,restaurant,,,,11.7057812,76.6420506
Coffee Stoppe,restaurant,,,,11.8376932,76.6760019
Imperial Hotel,restaurant,,,,11.248523,75.783714
Dhaba,restaurant,,,,28.2972557,77.0670586
Oasis,restaurant,,,,11.2919243,76.9397742
Daffi,,,toll_booth,,25.2483405,82.9939698
Daffi,,,toll_booth,,25.248212,82.9940473
The Waves,restaurant,,,,11.64283,92.74656
Island Arcade,restaurant,,,,11.6586054,92.7313059
Mahua,restaurant,,,,11.9848843,92.9521467
New Light House,restaurant,,,,11.6717046,92.7465694
Worliway Service Station,fuel,,,,18.997908,72.817372
Nirula's,fast_food,,,,28.4106834,77.0431666
Sulpantpur Lake Parking,parking,,,,28.4680471,76.8919788
DumDuma Lake Parking,parking,,,,28.2994923,77.1279583
Haldiram's,fast_food,,,,21.1418145,79.082042
Haldiram's,fast_food,,,,21.1414942,79.0608763
Powari petrol,fuel,,,,31.5370799,78.2806199
Indian Oil,fuel,,,,32.5454454,76.9742174
Indian Oil,fuel,,,,34.1522812,77.5770345
Indian Oil,fuel,,,,34.1170591,77.5888307
Tangerine,restaurant,,,,13.0392554,80.2556216
Ente Keralam,restaurant,,,,13.0421141,80.2558968
Suriyas,restaurant,,,,13.0383186,80.2566708
Ananda,restaurant,,,,13.0391641,80.247219
HP,fuel,,,,13.0391669,80.2573351
HP,fuel,,,,13.0402403,80.2468562
Midnight Express,restaurant,,,,13.0409358,80.2586973
Bharat Petroleum,fuel,,,,12.9365895,77.5804447
HP,fuel,,,,12.9796614,80.218483
Sukh Sagar,restaurant,,,,12.9333646,77.6230728
Amruth Park Land,restaurant,,,,12.8835332,77.7502633
Verka Milk Bar,fast_food,,,,30.2898333,75.8337204
Petrol Pump,fuel,,,,30.3277581,75.8445136
Indian Oil,fuel,,,,30.5290986,75.8882206
Sodi Non-veg Dhaba,restaurant,,,,30.6998409,75.8477565
Indian Oil,fuel,,,,11.0676625,77.0998701
Bharat Petroleum,fuel,,,,11.0740038,77.10848
HP,fuel,,,,11.0813425,77.1213385
Hindusthan Petroleum,fuel,,,,11.0784089,76.9418801
ARC Bharat Petroleum,fuel,,,,11.0275851,76.9514438
Adyar Ananda Bhavan,restaurant,,,,11.0163701,76.9711837
HP,fuel,,,,13.0311284,80.2394414
Bharat Petroleum,fuel,,,,12.9356671,77.6144578
Satwant,fuel,,,,31.1921215,75.7735516
P Pump,fuel,,,,31.116591,75.7760201
P Pump,fuel,,,,31.1391976,75.7748858
P Pump,fuel,,,,31.0584601,75.7817958
P Pump,fuel,,,,30.9490476,75.8270449
Damla toll plaza,,,toll_booth,,30.0806023,77.2098581
Shanthi Petrol Station,fuel,,,,12.9935494,80.1850866
Grey Pelican,restaurant,,,,30.1158119,77.2908314
HP,fuel,,,,28.5737882,77.2089741
Shanti Sagar,restaurant,,,,12.9606568,77.6385011
Srinidhi Sagar,fast_food,,,,12.9593353,77.6385869
Nandhini,restaurant,,,,12.9619513,77.6419064
Garuda Mall Parking,parking,,,,12.9703806,77.6094191
Nandhana,restaurant,,,,12.9558995,77.6411692
Saravana Bhavan,fast_food,,,,13.0345162,80.2690082
KFC,fast_food,,,,12.9781109,77.6385637
HP,fuel,,,,13.0534169,80.252032
Attibele (BETL),,,toll_booth,,12.7767003,77.77696
Krishnagiri,,,toll_booth,,12.5446531,78.2013265
Essar,fuel,,,,12.5508401,80.1424203
HP,fuel,,,,13.0427775,80.2677547
Sukh Sagar,restaurant,,,,12.9741824,77.5753745
Amoli Toll Plaza,,,toll_booth,,27.101285,77.0909115
Ludhewai Toll Plaza,,,toll_booth,,27.178445,77.4168352
DND Toll booth,,,toll_booth,,28.5762293,77.3038877
Simply Native,restaurant,,,,12.9651393,77.6383211
Subway,fast_food,,,,12.9637134,77.6403936
Adyar Ananda Bhavan,restaurant,,,,12.9543746,77.5930172
HP,fuel,,,,13.0184727,80.2614032
Petrol Pump,fuel,,,,30.9412387,75.8345718
Indian Oil,fuel,,,,13.0421221,80.2684202
Indian Oil,fuel,,,,11.2164596,77.0850864
Indian Oil,fuel,,,,11.1273864,77.0303319
HP,fuel,,,,11.08003,77.0042231
Indian Oil,fuel,,,,11.039519,76.9805839
HP,fuel,,,,11.0153511,76.9676319
BP,fuel,,,,11.012646,76.9673432
Pizza Hut,restaurant,,,,13.0055904,80.251822
Bharat Petrol Pump,fuel,,,,17.4272158,78.5310796
Tarnaka Agencies Petrol Pump,fuel,,,,17.4267938,78.5314488
Taj Tristar,restaurant,,,,17.4414402,78.4935002
Planet Yumm,fast_food,,,,12.9969184,80.2713903
Rendevous,restaurant,,,,11.9282536,79.8329207
Indian Oil,fuel,,,,12.0143543,79.8583103
Bharat Petroleum,fuel,,,,12.026085,79.8617063
Indian Oil Petrol Pump,fuel,,,,12.183598,79.9395673
Motel Mamalla,restaurant,,,,12.6327585,80.1960361
Indian Oil Petrol Pump,fuel,,,,12.6379872,80.1984054
ECR Dhaba,restaurant,,,,12.799447,80.2420745
Indian Oil,fuel,,,,12.9097046,80.2503011
Basera,restaurant,,,,12.9329807,80.2517763
Ladies Mess,restaurant,,,,12.9875968,80.2422869
Two wheeler parking shed,parking,,,,12.9893138,80.2307831
Narbal Fuel Filling Station,fuel,,,,34.1206935,74.6836443
Indian Oil Petrol Pump,fuel,,,,34.1091198,74.7467304
Maami's Mess,restaurant,,,,13.0324107,80.2704268
Mayilai Sri Karpagambal Mess,restaurant,,,,13.0327388,80.2712197
Sangeetha,restaurant,,,,13.0323689,80.2676459
Vasantha Bhavan,restaurant,,,,13.0322517,80.2685043
Adyar Ananda Bhavan,restaurant,,,,13.0340003,80.2677522
Rayer Mess,restaurant,,,,13.0355223,80.273014
GNC Tollgate,,,toll_booth,,13.6728944,79.3512012
Sri Angannan Briyani Hotel,restaurant,,,,10.9977025,76.9615688
Benjarong,restaurant,,,,13.0313113,80.2513502
Okadeys,restaurant,,,,13.0384527,80.2567668
Amaravati,restaurant,,,,13.0451417,80.2592552
Kalpaka,restaurant,,,,13.0468725,80.2605083
Madras Cafe,restaurant,,,,13.0008164,80.2043612
Buzz and Breeze,restaurant,,,,8.7331306,76.7058692
The surfer Cafe,restaurant,,,,8.733592,76.7054464
Theeram,restaurant,,,,8.733699,76.7053335
Oottupura Vegetarian Restaurant,restaurant,,,,8.7361447,76.7041425
BGL surf and bistro,restaurant,,,,8.7366466,76.7032221
Sky Lounge,restaurant,,,,8.7372184,76.7026727
Sea View,restaurant,,,,8.7374132,76.7024845
Cafe del Mar,restaurant,,,,8.7376457,76.7019002
Blue Moon Hut,restaurant,,,,8.7381454,76.7006195
Sunrise,restaurant,,,,8.738181,76.7003259
Darjeeling Cafe,restaurant,,,,8.7402388,76.6997223
Sital,restaurant,,,,29.4889927,79.6302815
Anand Thali,restaurant,,,,18.5009808,73.9448522
Garden IceCream,restaurant,,,,17.9352613,73.6879604
Toll Naka,,,toll_booth,,19.2569911,72.8712932
TATA Warehouse,,,,industrial,19.34143,72.89292
Dara's Dhaba,restaurant,,,,19.2767754,72.8889843
Haveli Inn,restaurant,,,,19.2933669,72.9052748
Toll Boooth,,,toll_booth,,17.92282,73.7869299
RELIANCE PETROL PUMP,fuel,,,,15.99884,73.69355
LAXMINARYAN PETROL PUMP,fuel,,,,16.0019235,73.6928674
Reliance Petroleum,fuel,,,,18.5724636,73.1192146
Petrol pump,fuel,,,,18.52432,73.15384
Visawa Hotel,restaurant,,,,18.0876201,73.4422299
Blue Water,restaurant,,,,8.7502824,76.694251
Adyar Ananda Bhavan,restaurant,,,,12.9968115,80.2582413
Aravusala,,,,industrial,10.3377268,76.221943
Rice &Fish Restaurant,restaurant,,,,10.0143,76.33419
Indian Oil,fuel,,,,17.4380252,78.3996269
KFC,fast_food,,,,17.4507642,78.3793915
Pizza Corner,fast_food,,,,17.4506168,78.3792198
Windows of the World,restaurant,,,,17.4502975,78.3816574
Little Italy,restaurant,,,,13.0609985,80.2475712
Pizza Hut,restaurant,,,,13.065426,80.2432841
Mainland China,restaurant,,,,13.0659169,80.2421706
Pathans Veg. Hotel,restaurant,,,,10.52236,76.2140665
TIBBS Frankies,fast_food,,,,19.0550612,72.8307379
Good Luck Restaurant,restaurant,,,,19.0517569,72.8240813
Wonton House,restaurant,,,,19.0548375,72.8258975
Novelty,restaurant,,,,13.0889622,80.2790177
Annapurna,restaurant,,,,13.0747305,80.2626235
Indian Oil,fuel,,,,28.3732657,75.5881903
Mahadev,fuel,,,,29.9796611,76.0393497
Petrol Pump,fuel,,,,29.7348289,75.906434
Malgudi Restaurant,restaurant,,,,17.4846794,78.3899283
Indian Oil Madhapur,fuel,,,,17.4407798,78.3913972
Olive Garden,restaurant,,,,17.4450343,78.3859699
Koshy's,restaurant,,,,12.9756318,77.6014761
Gowri Shankar,restaurant,,,,8.1981134,77.3842959
Indian Oil,fuel,,,,12.5123657,80.1608834
Barbecue Nation,restaurant,,,,13.0454388,80.2331563
Saravana Bhavan pur Veg,restaurant,,,,10.0872093,77.059678
GHMC Parking,parking,,,,17.4401957,78.4422214
Bharat Petroleum,fuel,,,,26.9156543,70.9080785
Sparkys Diner,restaurant,,,,13.0729298,80.2526113
Golden Palate Veg,restaurant,,,,12.618747,80.1938388
Sea Shore Restaurant,restaurant,,,,12.6196539,80.1982018
Santana Beach,restaurant,,,,12.6198269,80.1981926
Mamalla Bhavan,restaurant,,,,12.6169289,80.1935601
Saravana Bhavan,fast_food,,,,12.8375981,79.7039669
Ariya Nivas,restaurant,,,,8.4887851,76.9537694
Suprabatham Veg.,restaurant,,,,8.3860047,76.980052
HP,fuel,,,,12.5293607,80.1649422
Kalpakkam Canteen,fast_food,,,,12.5029186,80.1545529
Haldiram's,fast_food,,,,13.0453726,80.2669904
Maharaja,restaurant,,,,13.0633479,80.2739101
Domino's,fast_food,,,,28.6457998,77.1722681
Bowl O China,restaurant,,,,17.4393202,78.4473624
Essar petrol station musliarangadi,fuel,,,,11.1296431,76.0057173
"Don Pepe, Copper Chimney",restaurant,,,,13.0458581,80.258173
Adyar Ananda Bhavan,restaurant,,,,12.6273756,80.1943135
Paneer soda shop,restaurant,,,,13.0322882,80.2709135
Corner Juice Shop,restaurant,,,,13.0333788,80.2569388
Subway,fast_food,,,,13.0614085,80.2487161
Wangs Kitchen,restaurant,,,,13.0610272,80.2481523
Casa Picola,restaurant,,,,13.0607599,80.2512477
Domino's,fast_food,,,,13.0354864,80.2496631
US Pizza,restaurant,,,,13.0368042,80.2553943
The Wanton,restaurant,,,,13.0308675,80.2547014
Shell,fuel,,,,13.0247047,80.2065279
HP,fuel,,,,13.0200917,80.1853891
Bombay Halwa House,restaurant,,,,13.0383754,80.2674307
Mathsya,restaurant,,,,13.0750359,80.2581673
BP,fuel,,,,13.0116259,80.2185178
Marrybrown,fast_food,,,,13.0717985,80.2029951
Hotel Sangeetha,restaurant,,,,13.0717149,80.2030895
Adyar Ananda Bhavan,restaurant,,,,13.0718906,80.2028921
Indian Oil,fuel,,,,13.0696245,80.1996608
HP,fuel,,,,13.0158863,80.2048651
Ajnabee Snacks,restaurant,,,,13.0677438,80.2566293
Asli Punjabi Rasoi Ghar,restaurant,,,,13.0650516,80.2589124
Indian Oil,fuel,,,,13.0347707,80.2109563
Indian Oil,fuel,,,,13.0231114,80.2063585
Bombay Halwa House,restaurant,,,,13.0688689,80.2717553
BP,fuel,,,,13.0127799,80.2222772
BP,fuel,,,,13.0112743,80.2229232
Noodle House,restaurant,,,,13.0654928,80.2431296
Indainoil,fuel,,,,13.0259345,80.1753026
Shell,fuel,,,,13.0310451,80.1651264
Dominoes Pizza,restaurant,,,,13.0316532,80.1640666
HP,fuel,,,,13.0465921,80.1197732
Indian Oil,fuel,,,,13.0402991,80.1304112
Bharat Petroleum,fuel,,,,13.0386047,80.1330017
Hindustan Petroleum,fuel,,,,13.0421889,80.1237763
Indian Oil,fuel,,,,13.0322135,77.5698943
HP,fuel,,,,13.0265542,80.2324615
Subway,fast_food,,,,13.0266378,80.2326761
Indian Oil,fuel,,,,13.044528,80.2634018
Lemongrass,restaurant,,,,13.0287554,80.253254
Grains of Paradise,restaurant,,,,13.0276871,80.2526956
Cream Centre,restaurant,,,,13.026914,80.2556765
HP Petrol Bunk,fuel,,,,13.0277462,80.2512876
In Seoul,restaurant,,,,13.0321755,80.2521158
The Crown,restaurant,,,,13.0403208,80.2437255
Paprika,restaurant,,,,13.0460421,80.2476349
Aqua,restaurant,,,,13.0529661,80.2500813
Lotus,restaurant,,,,13.0528789,80.2498533
Hip Asia,restaurant,,,,13.0630743,80.2612723
Akasaka,restaurant,,,,12.9881641,80.2556827
Lemon grass,restaurant,,,,12.5458091,76.9483858
Sri Prabhudeva Service Station,fuel,,,,12.3927526,76.6669578
Bombay Halwa House,restaurant,,,,13.0851955,80.2449931
Thaali Corner,restaurant,,,,13.0851761,80.2447589
Sri Sarvana Bhavan,restaurant,,,,13.0510228,80.0944083
Cornucopia,restaurant,,,,13.0307571,80.2457033
Dhaba Express,restaurant,,,,13.0312456,80.2460431
Saravana Bhavan,fast_food,,,,13.044333,80.2644982
Parvathi Bhavan,restaurant,,,,13.0387921,80.2570003
Moga Oil Store,fuel,,,,30.829337,75.0980695
Cilantro,restaurant,,,,13.0064035,80.2057624
Navratna,restaurant,,,,13.0062581,80.2057624
Kayal,restaurant,,,,13.0061052,80.2057662
Indian Oil,fuel,,,,28.2444353,77.0725091
Makkhan Sweets,restaurant,,,,13.0311615,80.2459839
HP,fuel,,,,13.0949946,80.2927844
Railway Station Civil Lines Parking,parking,,,,30.91148,75.8473526
Hill View Cottage Mess,restaurant,,,,13.6741011,79.3485323
Anna Dhanam,restaurant,,,,13.682454,79.3497593
TBC,restaurant,,,,13.6778578,79.3435418
SVGH,restaurant,,,,13.6792104,79.340929
Kalsi,fuel,,,,30.1741001,74.929439
Holiday Home,restaurant,,,,30.2128179,74.9403567
Petrol Pump,fuel,,,,30.2126399,74.9444594
McDonald's,fast_food,,,,30.550006,76.4868812
Om Sweets,fast_food,,,,28.4529218,77.050279
Bharat Petroleum,fuel,,,,28.5229363,77.0996758
Indian Oil,fuel,,,,28.5248952,77.100967
M M A Kababs,restaurant,,,,12.9566296,77.7152069
HP Auto Care,fuel,,,,12.9812136,77.6570884
Amudha Surabi Petrol Bunk,fuel,,,,11.9499033,79.8142629
Food Village,restaurant,,,,12.9278334,80.2521808
Ruchit Palace,restaurant,,,,19.0971923,73.0259339
Naveidyam,restaurant,,,,28.4649041,77.0789762
Pizza Hut,restaurant,,,,12.9856448,80.2459383
Pupil,fast_food,,,,13.0010132,80.2709043
By The Bay,restaurant,,,,13.0012892,80.2712305
Cozee,fast_food,,,,13.0010049,80.2708185
Tasty Jones,restaurant,,,,13.0010216,80.2706983
Dhaba Express,restaurant,,,,13.0007325,80.2704376
Hotel Balaji,restaurant,,,,13.00057,80.2662523
Eden,restaurant,,,,12.9970909,80.2679346
Besant Fast Food,fast_food,,,,13.0005366,80.2667244
Pizza Hut,restaurant,,,,12.9782249,77.640632
Konārk,restaurant,,,,12.9688102,77.6021434
Kamat Nandanvan,restaurant,,,,13.0492109,77.547547
Hard Rock Cafe,restaurant,,,,12.9762256,77.6014809
Sri Raghavendra,restaurant,,,,12.9778503,77.5722059
Anand Sagar Punjabi Dhaba,restaurant,,,,12.9760075,77.5763577
Kovoor Petrol Pump,fuel,,,,11.2710933,75.8319857
Mavalli Tiffin Rooms,restaurant,,,,12.9550389,77.5854279
Hyderbad Biryani House,restaurant,,,,12.9665538,77.6141032
Kariyamangalam Toll Plaza,,,toll_booth,,12.2882508,78.828471
Flavours Restaurant,restaurant,,,,28.5663466,77.2340571
Vishala,restaurant,,,,22.9936417,72.5357058
Rajvadu Restaurant,restaurant,,,,23.0042051,72.5397742
Bhatia Sweet Shop & Fast Food,fast_food,,,,30.7693916,76.7922462
Harithagiri,restaurant,,,,11.618265,76.0825062
Ginger Greens,restaurant,,,,13.0259923,77.6405519
Dosa Camp,fast_food,,,,13.0483946,77.5426609
Floating Restaurant,restaurant,,,,30.6380234,76.3347909
Petrol Pump,fuel,,,,13.6156819,79.3630087
Bharat Petroleum,fuel,,,,28.4518108,77.0752012
Nirula's,restaurant,,,,28.522664,77.1655706
Elevated Section/ Electronic City,,,toll_booth,,12.8419314,77.6754937
Cafe Mocha,restaurant,,,,17.4186379,78.4448824
Pizza Hut,restaurant,,,,13.0261391,77.6362268
Cefetaria,restaurant,,,,12.9864771,79.972295
Mens Mess,restaurant,,,,12.9884509,79.9698317
Ladies Mess,restaurant,,,,12.9871629,79.9690249
Punjabi Dhaba,restaurant,,,,12.992367,79.9854249
Indian Oil,fuel,,,,12.9918778,79.9857961
Hallimane,restaurant,,,,12.9955258,77.5717703
Reliance Petroleum,fuel,,,,11.4224358,75.9340804
Yokogowa Blue Star,,,,industrial,12.8490337,77.6631347
Domino's,fast_food,,,,12.8417186,77.6465145
Flextronics,,,,industrial,12.8409584,77.6636503
Jai Hind,restaurant,,,,18.954073,72.7976688
Vasantha Bhavan Nama veedu,restaurant,,,,13.0492377,80.207616
Adiga's,restaurant,,,,13.0055704,77.5713507
Fruit Shop on Greams Road,fast_food,,,,13.060307,80.2546115
Hajiali Juice Centre,fast_food,,,,13.0603857,80.254815
Sea Shell,fast_food,,,,13.0574642,80.2551093
Agni Resort,restaurant,,,,18.8626726,73.2751948
Hotel Runs,restaurant,,,,13.00636,80.2548775
Panchamruth,restaurant,,,,15.8424748,74.5030484
Friends Filling Station,fuel,,,,31.4262606,75.5096904
Indian Oil,fuel,,,,31.3059739,75.6319612
Haveli,restaurant,,,,31.2779076,75.6765536
Singla Resort,restaurant,,,,31.1686677,75.7734306
Guru Nanak Dhaba,restaurant,,,,31.0507882,75.7820595
Toll Plaza,,,toll_booth,,30.9889674,75.7906026
Baba Chiken,fast_food,,,,30.8897197,75.8306755
Mehfil,restaurant,,,,30.8960338,75.8374541
Dhillon Filling Station,fuel,,,,28.3461287,77.0675549
Sector-14 Market,parking,,,,28.4737292,77.0478919
Food Court,fast_food,,,,28.4939209,77.0932012
Gesmo,restaurant,,,,34.163847,77.5827582
Tarang Restaurant,restaurant,,,,17.1480916,73.2664746
Tea tent,fast_food,,,,34.5722527,77.4951874
Banan Republic Cavala,restaurant,,,,15.5614229,73.7521292
Britto's,restaurant,,,,15.5613469,73.7494583
Sussegad Souza,restaurant,,,,15.5440238,73.7645342
Dandey's Grill,restaurant,,,,15.5440652,73.8145735
Ice Cube,restaurant,,,,15.4641285,73.8061277
Shanbhag Restaurant,restaurant,,,,17.4030548,78.4764469
Bademiya Seekh Kebab Stall,fast_food,,,,18.9231497,72.8325111
Sangam,restaurant,,,,34.5516899,77.5476582
Tea Tent,fast_food,,,,33.8242501,77.6508538
Tea tent,fast_food,,,,34.1167511,77.4121523
Apple tree restaurant German Bakery,restaurant,,,,34.1649713,77.5840383
Lamayuru,restaurant,,,,34.1638737,77.5826315
Namkha hotel,restaurant,,,,34.1565584,77.5831857
Tea tent,fast_food,,,,34.0588456,77.4213283
Tea tent,fast_food,,,,34.0464236,77.3879321
Tea tent,fast_food,,,,34.0289946,77.3103081
Tea tent,fast_food,,,,34.0247914,77.2988109
Tea Tent,restaurant,,,,33.979439,77.2617696
Hamoursa Tea tent & Campsite,fast_food,,,,33.9417831,77.3304027
Tea tent,fast_food,,,,33.9576493,77.3003231
Tea tent,fast_food,,,,33.8971443,77.3938255
McDonald's,fast_food,,,,28.5500151,77.2511173
Subway,fast_food,,,,28.5500689,77.2510928
Indraprastha Gas Limited,fuel,,,,28.5848782,77.2602207
Indian Oil,fuel,,,,28.6175988,77.2497911
Indraprastha Gas Limited,fuel,,,,28.6186155,77.2493074
Indraprastha Gas Limited,fuel,,,,28.6818859,77.2297995
Indian Oil,fuel,,,,28.7314747,77.1839327
IBP Limited,fuel,,,,28.7561213,77.147976
Indian Oil,fuel,,,,28.7943045,77.1391309
Bharat Petroleum,fuel,,,,28.7962535,77.1390084
Bharat Pteroleum,fuel,,,,28.831095,77.1304498
Hindustan Petroleum,fuel,,,,28.8558765,77.1257097
Indian Oil,fuel,,,,28.8901304,77.1160838
Gulshan Dhaba,restaurant,,,,29.0337787,77.0711437
Pahalwan Dhaba,restaurant,,,,29.0338614,77.0711106
Ahuja Dhaba,restaurant,,,,29.033927,77.0710865
Indian Oil,fuel,,,,29.0449459,77.0679064
Amrik Sukhdev,restaurant,,,,29.0587033,77.0635163
Bharat Petroleum,fuel,,,,29.0609667,77.0642532
Indian Oil,fuel,,,,29.0655068,77.0629419
Pahalwan Dhaba,restaurant,,,,29.0312115,77.0729063
Indian Oil,fuel,,,,28.5855272,77.3092979
Indian Oil,fuel,,,,29.105987,77.7112326
Hindustan Petroleum,fuel,,,,19.2745442,72.8855876
Hard Rock Cafe,restaurant,,,,18.5387955,73.912781
Stone Water Grill,restaurant,,,,18.5383533,73.9126684
Hyderabad House,restaurant,,,,17.426299,78.4382663
Chutneys,restaurant,,,,17.4263318,78.4475017
Nisarg,restaurant,,,,18.5067094,73.8321992
Kolahoi Panorama,restaurant,,,,34.0326704,74.36701
Yo China,restaurant,,,,12.9504549,77.6999246
Raj Restaurant,restaurant,,,,28.4446821,77.0596627
Rajasthani Parotha Point,fast_food,,,,12.9514719,77.5774905
Arya Vysya Refreshments,fast_food,,,,12.9510029,77.5776381
Le Pizzeria,restaurant,,,,18.5396305,73.8833529
Asia Kitchen,restaurant,,,,18.538908,73.8752478
Mukul Petrol Pump,fuel,,,,18.53956,73.885683
Meenakshi Restaurant,restaurant,,,,9.9253602,78.1392733
Hotel Poonga Arya Bhavan,restaurant,,,,9.9298036,78.137144
Indian Oil,fuel,,,,12.9967798,77.5404068
Bharat Petroleum,fuel,,,,12.9966627,77.5400464
Guru Sagar Hotel,restaurant,,,,12.9951833,77.5396211
Haldiram,restaurant,,,,28.4012573,76.9886452
Ganesh Upahara,fast_food,,,,13.0468252,77.5494119
Taj Belson,restaurant,,,,17.4423612,78.4936495
Utsav Restaurant,restaurant,,,,17.4483317,78.4928226
Rangoli Cafe & Restaurant,restaurant,,,,32.2676207,77.1870793
Hav Mor,restaurant,,,,13.02807,77.5729018
Thai House,restaurant,,,,18.5690389,73.8321526
Khalapur Toll Plaza,,,toll_booth,,18.8009731,73.2852158
IOCL,fuel,,,,26.8707127,80.9630368
Indian Oil Petrol Pump,fuel,,,,26.8650887,80.996398
Indian Oil Petrol Station,fuel,,,,26.8720047,80.9964674
Indian Oil Petrol Station,fuel,,,,26.8857723,80.9925664
Poisson Rouge,restaurant,,,,15.5655465,73.7499477
Mayonna Creek Side Bar & Restaurant,restaurant,,,,15.5671618,73.7512831
St. Anthony's,restaurant,,,,15.5615172,73.7492435
Sunset Restaurant & Bar,restaurant,,,,15.563143,73.7479133
Hyderabad House,restaurant,,,,12.932679,77.6135844
McDonald's,fast_food,,,,12.9351086,77.611565
KFC,fast_food,,,,12.9343669,77.6107742
Golden Cave Restaurant,restaurant,,,,17.4362808,78.4449429
Mythri Restaurant and Bar,restaurant,,,,17.4370495,78.4446481
Sindoor Palace,restaurant,,,,8.5211725,76.9604676
Indian Oil,fuel,,,,12.299309,76.6429854
Hotel Mahesh Prasad,restaurant,,,,12.2955488,76.6411661
Papa John's,fast_food,,,,12.3078743,76.659847
Big Temple Parking,parking,,,,10.7816355,79.1341527
Aggarwal Sweets,restaurant,,,,28.5342313,77.2145639
Ashok Namkeen & Sweets,fast_food,,,,28.5362363,77.2118694
South Indian Fast Food,fast_food,,,,28.5349439,77.2127469
Shree Ram Chat,fast_food,,,,28.5355117,77.2108356
Jai Baba Ki,fast_food,,,,28.5323164,77.2153932
Om Sri Sai Snacks,fast_food,,,,28.5324543,77.2174638
Raju Dhaba,restaurant,,,,28.5308092,77.2179083
Yummy Tummy,restaurant,,,,18.5124118,73.9284574
Teat tent,fast_food,,,,34.0181042,78.2826147
Superjet Petroleum,fuel,,,,11.0592219,76.2751214
Friends Corner,restaurant,,,,32.2222133,76.3178329
HP,fuel,,,,31.7094206,76.0891094
Indian Oil,fuel,,,,31.7825749,76.1187188
petrol bunk,fuel,,,,12.9437458,80.1347202
Indian Oil,fuel,,,,12.9441544,80.1352387
Hotel Nirvana,restaurant,,,,32.2350778,76.3281155
muniyandi,restaurant,,,,12.9462009,80.1382285
HP petrol bunk,fuel,,,,12.9436249,80.1389873
Sagar Ratna,restaurant,,,,28.5369219,77.2118299
Fauji Dhaba,restaurant,,,,32.1507781,76.4184608
Paras,restaurant,,,,32.1555292,76.4153482
Yol Cannt Toll,,,toll_booth,,32.1845533,76.3693341
Ganesh mess,restaurant,,,,12.9457209,80.1382225
lakshmi,restaurant,,,,12.9460679,80.1382245
Stiff Waves,restaurant,,,,15.3693362,73.834655
VBR Goenkar Restaurant,restaurant,,,,15.397018,73.9098168
Zeebop,restaurant,,,,15.3207001,73.8990021
Nandhini Andhra Hotel,restaurant,,,,12.9932643,77.5957899
pals,restaurant,,,,11.4114766,76.7027069
Shinkows,restaurant,,,,11.411641,76.7026939
Sikshak Sadan,restaurant,,,,11.2522183,75.7870636
Rajasthan Bhojanalaya,restaurant,,,,11.2494486,75.7853754
Natraj vegetarian Restaurant,restaurant,,,,26.9161855,75.8109776
Berco's Garden,restaurant,,,,28.594222,77.3389703
DND Toll booth,,,toll_booth,,28.5758908,77.3032363
HP,fuel,,,,8.51904,76.9609452
club restaurant,restaurant,,,,8.5223396,76.9664596
Monalisa,restaurant,,,,19.1668447,73.2305258
NHAI Karjeevanhalli Toll Plaza,,,toll_booth,,13.6122242,76.9544591
Central market,restaurant,,,,28.6368844,77.37601
Pai Vihar,restaurant,,,,12.9930635,77.5959522
Bharat Petroleum,fuel,,,,13.0096888,77.5624992
Papa John's,fast_food,,,,13.0045524,77.5711963
Vishnu Sagar,restaurant,,,,12.9901236,77.5722985
Kolkata Chaat,fast_food,,,,12.9953279,77.5712934
TOPSEE,restaurant,,,,12.9986633,80.2563991
Kshatriyas,restaurant,,,,12.6276321,80.1942599
Dosa Cafe,fast_food,,,,13.0671013,80.2050495
Hot Chips,fast_food,,,,13.0670804,80.2062941
Vasantha Bhavan,restaurant,,,,13.0005001,80.2560996
Hotchips,restaurant,,,,13.00651,80.2442513
Sri Krishna Sweets,restaurant,,,,13.049367,80.2099012
Saravana Bhavan,fast_food,,,,13.0352358,80.2125834
MintLeaf,restaurant,,,,12.9603346,77.6382904
Bon Apetit,restaurant,,,,11.4140879,76.6982585
Emirates,restaurant,,,,13.0192135,77.5572955
Jatindra,fuel,,,,30.8197669,75.5634744
Coffee Day,restaurant,,,,11.8185102,76.6843972
HP,fuel,,,,11.8178753,76.684553
Hot Chips,restaurant,,,,12.9427993,80.1336515
Vasantha Bhavan,restaurant,,,,12.9494253,80.1390878
manikandan,restaurant,,,,12.9516523,80.1418062
Nandini Restaurant Parking,parking,,,,12.989144,77.7337716
Frites,restaurant,,,,11.99095,79.8287992
Aurelec,restaurant,,,,11.9926559,79.8350026
Paradise Pizziera,restaurant,,,,11.9955573,79.8358287
Aashiana,restaurant,,,,31.5374948,76.893232
Golconda Chimney,restaurant,,,,12.9558807,77.7127803
Aathangudi,restaurant,,,,12.9401812,80.131094
hotel senthil,restaurant,,,,12.9424304,80.1332735
Nadakkave Pump,fuel,,,,11.2731945,75.7777643
Hindustan Petroleum,fuel,,,,13.0436252,77.5536883
Bharath,restaurant,,,,13.0521546,77.5515881
Kadamba Veg,fast_food,,,,13.051811,77.5517989
Wah Paratha,restaurant,,,,12.9262764,77.6698353
Indian Oil,fuel,,,,12.9571863,77.5862334
Toll Plaza Kumbalam,,,toll_booth,,9.8952914,76.313624
Ganesh Darshan,restaurant,,,,12.9309204,77.5840319
Upahara Darshini,restaurant,,,,12.9330581,77.584422
Nagarjuna Chimney,restaurant,,,,12.9330431,77.5843044
La Casa,restaurant,,,,12.9261789,77.5848245
KFC,fast_food,,,,12.9269294,77.5861832
The Only Place,restaurant,,,,12.9732444,77.6033899
Durga Restaurant,restaurant,,,,13.0489683,77.5440769
Pizza Hut,restaurant,,,,13.0475791,80.1963823
Shell,fuel,,,,13.0484551,80.2066281
Sri Parvathy Bhavan,restaurant,,,,13.052763,80.192033
Indian Coffee House,restaurant,,,,12.9745397,77.6052505
Petrol Pump,fuel,,,,30.4314091,76.5401331
hindustan petroleum,fuel,,,,30.3220555,76.4141205
Mishra Pedha,fast_food,,,,12.9678501,77.5927753
Udupi Sri Krishnarajathadri,restaurant,,,,13.0041002,77.5713906
Jagadish Kara Condiments,,,,industrial,13.0393856,77.5537217
Nandini Palace,restaurant,,,,13.0330093,77.5691944
Beijing Bites,restaurant,,,,13.0330896,77.569359
Indian Bureau of Mines,,,,industrial,13.0265319,77.5342651
Gokaldas,,,,industrial,13.0281717,77.5353211
McDonald's,fast_food,,,,13.0293247,77.5708017
Onesta,restaurant,,,,13.0292372,77.5708378
Chung's,restaurant,,,,13.00654,77.5692833
Sagarrathna,restaurant,,,,28.6740388,77.1037651
Kerala Cafe,restaurant,,,,9.9672179,76.2431551
Koder House,restaurant,,,,9.9672455,76.2426715
Club Mahindra,restaurant,,,,12.4413137,75.7164394
Sandesh The Prince,restaurant,,,,12.309104,76.6623707
HP,fuel,,,,28.6562179,77.0895469
Petrol Pump,fuel,,,,10.2360004,78.738452
Indore Dewas (Indore side),,,toll_booth,,22.9595072,76.0842865
Metro BIG Cinema,parking,,,,18.9429658,72.8288401
Rajdhani,fast_food,,,,18.9429607,72.8291513
hotel murlimanohar,restaurant,,,,21.0094339,75.5767811
Sher-e-Punjab Dhaba,restaurant,,,,13.0218399,77.5349348
Raju Samosa,fast_food,,,,13.0266571,77.5391304
Sai Chats,fast_food,,,,13.0067269,77.5640344
Ever Green,restaurant,,,,18.9598264,72.81716
Shriram,restaurant,,,,18.959522,72.8172244
Adarsh Dhaba,restaurant,,,,13.0220281,77.5340657
Thangam family resturant,restaurant,,,,12.9229655,80.1599956
hindustan petrolium,fuel,,,,31.2117529,75.4223281
Makhel,,,toll_booth,,23.4904621,70.9426173
Indian Oil,fuel,,,,27.5621729,77.6259754
Amma Restarunt,restaurant,,,,8.508768,76.9623706
RMV Club,restaurant,,,,13.0380165,77.5693434
McDonald's,fast_food,,,,19.1003169,72.8407161
Supplyco Pump,fuel,,,,8.5103383,76.9602255
Hunan Chinese Restaurant,restaurant,,,,13.0342347,77.5693249
Seasonal Tastes,restaurant,,,,18.5391023,73.9061842
New Martin Hotel,restaurant,,,,18.9186212,72.8295185
Kabini Canteen,restaurant,,,,13.0162478,77.5648911
Staff Parking,parking,,,,23.0113878,72.5687751
iqbal hotel,restaurant,,,,17.3691286,78.481888
hotel ajwa,restaurant,,,,17.369237,78.4823114
choice hotel,restaurant,,,,17.3688724,78.4825517
Husnain hotel,restaurant,,,,17.3678281,78.4829274
New Grand Restaurent,restaurant,,,,17.3745682,78.47601
Nayab Hotel,restaurant,,,,17.3695304,78.4768575
شاداب ہوٹل (Hotel Shadab),restaurant,,,,17.3687527,78.4755405
madina hotel,restaurant,,,,17.3685479,78.4759107
Shahran hotel,restaurant,,,,17.3596267,78.4740709
Anand Bhavan (vegetarian),restaurant,,,,17.3647568,78.475484
Hindustan Petroleum Corporation Limited,fuel,,,,31.3881732,77.5574999
Hindustan Petroleum Corporation Limited,fuel,,,,31.3930595,77.5884835
Bharat Petroleum Corporation Limited,fuel,,,,31.4580644,77.6593586
Indian Oil Corporation Limited,fuel,,,,31.5212448,77.7679004
Chicken County,restaurant,,,,13.0372579,77.566121
Mangaldas Ni Haveli,restaurant,,,,23.0227338,72.5920852
HP,fuel,,,,17.2514898,80.1574383
Tawah,restaurant,,,,17.4028328,78.5100052
Kaveri Restaurant,restaurant,,,,17.2503346,80.1449256
Petrol bunk,fuel,,,,17.2505522,80.1448326
Shiro,restaurant,,,,12.971852,77.5964092
Sandhya Sagar,restaurant,,,,12.9600242,77.6015444
Utsav,restaurant,,,,12.9601639,77.5945806
Royal restaurant,restaurant,,,,9.5015799,76.3421325
Icecream Club,restaurant,,,,17.4541644,78.4981718
M.B.R Fuel Point,fuel,,,,17.4850231,78.4968743
Hotel Cochin Fort,restaurant,,,,9.9680169,76.2454728
Tandoor,restaurant,,,,9.9695938,76.2850737
Rasa,restaurant,,,,12.994359,77.5711764
"ECR Toll Plaza, Poonjeri",,,toll_booth,,12.61538,80.169895
Navaratna,restaurant,,,,19.1668217,73.2360009
Hotel Ambika,restaurant,,,,19.166315,73.237181
Hotel Atithi,restaurant,,,,19.1640855,73.2391337
Subway,fast_food,,,,12.9269376,80.2515763
ECR Toll Plaza,,,toll_booth,,12.8616393,80.2418889
Data Udipi Hotel,restaurant,,,,13.0405828,80.1725724
Tibetan Brothers,restaurant,,,,10.2359812,77.4908715
Febina,restaurant,,,,9.9586543,76.2449884
McDonald's,fast_food,,,,17.4346181,78.3864731
Indian Oil,fuel,,,,25.9283187,83.5711021
Indian Oil,fuel,,,,25.9348177,83.5669181
Indian Oil,fuel,,,,25.9633105,83.5803692
Ambrai Restaurant,restaurant,,,,24.5781623,73.6800374
Sri Ganesh Darshan,fast_food,,,,13.0282488,77.5717997
Freska,restaurant,,,,13.0275961,77.5766293
Pizza Hut,restaurant,,,,13.0279832,77.5715545
Miller's 46,restaurant,,,,12.991491,77.5941489
Something Fishy,restaurant,,,,17.4314951,78.3887075
Mint Masala,restaurant,,,,13.0069868,77.5788699
Shezan Restaurant,restaurant,,,,12.9871688,77.5946714
Domino's,fast_food,,,,12.988225,77.5938291
Ramana's,restaurant,,,,12.9887039,77.5939333
Mahesh Lunch Home,restaurant,,,,18.9340269,72.8336071
Mocambo Cafe,restaurant,,,,18.9341792,72.8336802
Ideal Corner,restaurant,,,,18.9349624,72.8342167
Excellency Restaurant,restaurant,,,,18.9352567,72.8373924
Southern Spice,restaurant,,,,17.4271464,78.4443444
Bharat Petrolium,fuel,,,,26.119679,83.8590517
Subway,fast_food,,,,12.9758245,77.5975433
McDonald's,fast_food,,,,12.9757683,77.5984496
Bharat Petroleum,fuel,,,,12.9758396,77.5985677
Nisarga,restaurant,,,,12.9704007,77.5874248
Mathsyadarshini (Fish Canteen),fast_food,,,,12.9752515,77.5886667
Museum Canteen,fast_food,,,,12.9748503,77.5956392
Canteen,restaurant,,,,12.9803653,77.5950694
SC Railway Parking,parking,,,,17.2487589,80.1383805
New Yamway,fast_food,,,,17.2490714,80.1396411
Indian Oil,fuel,,,,10.8449272,76.031949
Indian Oil,fuel,,,,10.8395074,76.0300801
Parkview Hotel,restaurant,,,,12.9758502,77.5891031
Devar Mess,restaurant,,,,10.7756536,79.1263499
Chatpat,restaurant,,,,12.9671651,77.580199
Hotel Madhuvan,restaurant,,,,12.9703805,77.5800395
Hotel Empire,restaurant,,,,12.9798386,77.6027906
Sanman Veg,restaurant,,,,12.9847344,77.5971261
Bharat Petroleum,fuel,,,,18.9367891,72.8396991
Haka,restaurant,,,,18.5062169,73.9013284
Shiva,restaurant,,,,17.2501136,80.1454468
Softy Zone,fast_food,,,,17.2500921,80.1454306
Moshe's,restaurant,,,,18.917358,72.824523
McDonald's,fast_food,,,,18.5191906,73.877407
PLA Petrok Bunk,fuel,,,,10.777508,79.1416009
Kamat Restaurant,restaurant,,,,18.9215278,72.8312063
Thousand Oaks,restaurant,,,,18.5104212,73.8799164
11 East Street Cafe,restaurant,,,,18.5199422,73.8804464
Kareem's,restaurant,,,,18.5140857,73.8796502
Kwality,restaurant,,,,18.5150767,73.8799074
Caza Maria,restaurant,,,,9.9586771,76.2595398
Sheetal Arch,restaurant,,,,18.5124763,73.880839
Sigree,restaurant,,,,18.5395737,73.8750368
Flags,restaurant,,,,18.5272989,73.877989
Ram Krishna,restaurant,,,,18.5191213,73.8785611
Sana Di Ge,restaurant,,,,12.9853914,77.5795059
New Shanthi Sagar,restaurant,,,,13.0068783,77.5790907
Nikki's Pub & Restaurant,restaurant,,,,13.0144093,77.5736842
HP,fuel,,,,17.2640633,80.1460573
Spice Hut,fast_food,,,,17.2494739,80.1583582
Kedari Petrol Pump,fuel,,,,18.4865476,73.8986607
Trinco,restaurant,,,,18.5265172,73.8872945
Swagath,restaurant,,,,17.4062114,78.496159
Astoria,restaurant,,,,17.4064861,78.4969807
Bawarchi,restaurant,,,,17.4063098,78.4974141
Bharat Petroleum Corporation Limited,fuel,,,,32.0844147,76.5201584
Hindustan Petroleum Corporation Limited,fuel,,,,32.0964391,76.5308483
Indian Oil Corporation Limited,fuel,,,,32.1025994,76.5340998
Chicken County,fast_food,,,,12.9756686,77.5749645
Amruth Vegetarian Restaurant,restaurant,,,,12.9711937,77.6007788
Hotel Vinitha,restaurant,,,,12.982738,77.6030551
Prego,restaurant,,,,18.5393141,73.9061183
Kangan,restaurant,,,,18.5399703,73.9061077
Goyam,restaurant,,,,15.0368747,73.989421
Sunset Bar & Restaurant,restaurant,,,,15.0349757,73.991958
Hare Krishna Pure Veg Restaurant,restaurant,,,,12.9772698,77.570304
Balaji Restaurant,restaurant,,,,12.9772479,77.5704213
Indian Oil,fuel,,,,25.5417224,83.2665963
Indian Oil,fuel,,,,25.5449342,83.3304886
Indian Oil,fuel,,,,25.5459651,83.3768475
HP,fuel,,,,25.567077,83.4707863
Bharat Petrolium,fuel,,,,25.5786498,83.5035431
Indian Oil,fuel,,,,25.5783509,83.5573436
Bharat Petrolium,fuel,,,,25.6283152,83.5661881
IBP,fuel,,,,25.6796435,83.5485398
Indian Oil,fuel,,,,25.7293344,83.5458034
IBP,fuel,,,,25.7706176,83.5536783
Indian Oil,fuel,,,,25.8325808,83.5579199
NRL,fuel,,,,25.8909632,83.560484
Indian Oil,fuel,,,,25.8987875,83.5611688
Indian Oil,fuel,,,,25.4637202,83.1183409
Indian Oil,fuel,,,,25.5408428,83.1870583
Indian Oil,fuel,,,,25.5403315,83.211525
IBP,fuel,,,,25.540783,83.2205785
Bharat Petrolium,fuel,,,,25.4478976,83.0312858
Ankur,restaurant,,,,18.9306421,72.8323368
Indigo Deli,restaurant,,,,18.9239059,72.8332921
Hotel Bharat,restaurant,,,,10.5216573,76.2138201
HP,fuel,,,,13.07286,80.1888928
Indian Oil,fuel,,,,13.0718881,80.1879592
Pizza Hut,restaurant,,,,12.9310045,77.5830947
Anokhi Cafe,restaurant,,,,26.9106803,75.7985655
Cafe Noorani,restaurant,,,,18.9771417,72.8117849
Essar Petrol station,fuel,,,,12.9488925,80.1854622
HP petrol station,fuel,,,,12.9493847,80.1857038
BP,fuel,,,,12.9498294,80.1856658
Indian Oil,fuel,,,,12.920301,80.1845415
IBP Petrol Station,fuel,,,,12.9655809,80.2003887
Bharat Petroleum,fuel,,,,12.9640355,80.214439
Café and Restro,restaurant,,,,32.2371714,76.3241288
BP petrol station,fuel,,,,12.6828948,79.9862021
SP Jain Parking,parking,,,,19.1235323,72.8365669
McDonald's,fast_food,,,,23.0317635,72.5701852
Dosa the Restaurant,restaurant,,,,12.9863717,80.2607741
Sri Annalaxmi Sweets and Snacks,fast_food,,,,12.986194,80.2619161
Diamond,parking,,,,18.99282,72.8486524
Sangeeta,restaurant,,,,13.0070874,80.2500834
Toll Booth RGI ORR Exit,,,toll_booth,,17.2537969,78.3793452
Villa 39,restaurant,,,,18.9254094,72.8304996
Bikanervala,fast_food,,,,17.410736,78.4497929
Little Italy,restaurant,,,,18.9544525,72.8184244
Adhithi Hotel,restaurant,,,,9.7422251,76.6119586
Anyees Filling Station,fuel,,,,34.1128616,74.7177341
Bharat Petrolium,fuel,,,,25.9438383,83.5689208
Hi-Tech Bawarchi,fast_food,,,,17.4410683,78.391636
Dwaraka,restaurant,,,,17.4054719,78.4638523
Sarvi Restaurant,restaurant,,,,18.9667686,72.8291706
Hindustan Petroleum Corporation Limited,fuel,,,,32.4636891,76.4779762
Indian Oil Corporation Limited,fuel,,,,32.5577463,76.118193
Attickal Shap,restaurant,,,,9.7499195,76.6318183
HP marangattupilly,fuel,,,,9.7473533,76.6098634
Chicking,fast_food,,,,9.9725045,76.2853967
CNG Fuel Station,fuel,,,,28.5959237,77.0290084
Indian Oil Corporation Limited,fuel,,,,32.1390902,76.4141706
King & Cardinal,fast_food,,,,17.4006107,78.4884142
Blue Fox Restaurant,restaurant,,,,17.4009655,78.4853499
Birla Mandir car parking,parking,,,,17.4054598,78.4696734
Star Bar,restaurant,,,,15.5003834,73.8932498
HP,fuel,,,,28.5209438,77.0822696
Hotel Fishland,restaurant,,,,17.4049643,78.4637359
Vasu,fast_food,,,,17.244818,80.138421
Green Chillies,restaurant,,,,17.2458321,80.138587
Barbeque Nation,restaurant,,,,12.9622135,77.6414116
TVC Gate 2 Parking,parking,,,,8.4860738,76.9499119
Gauri,restaurant,,,,8.5298114,76.9290444
Samosa,fast_food,,,,13.0261316,77.5379964
Hotel Madeshwara,fast_food,,,,13.0281211,77.5360606
Olive Restaurant,restaurant,,,,19.0717586,72.8253808
Sri Durga Mess,restaurant,,,,17.2486165,80.1483516
Indigo,restaurant,,,,22.7533416,75.903384
Saravanaa Bhavan,fast_food,,,,13.0940164,80.2926773
Hot Chips,restaurant,,,,12.9880438,80.2560376
Haveli,restaurant,,,,17.2510281,80.1561172
Prerana,fuel,,,,17.2511847,80.1567278
Rajwada,restaurant,,,,18.5494,73.8042565
Up and Above,restaurant,,,,18.5064267,73.7839701
Aggarwal Restaurant,restaurant,,,,28.7988933,77.0352522
A Masala House,restaurant,,,,12.9893411,77.5929583
Hotel Raj Bhavan,restaurant,,,,13.0558502,80.248
Chatees 36,restaurant,,,,17.441951,78.4855009
Chang La Queen (restaurant & guest house),restaurant,,,,34.0987403,78.1204689
Gold Coast Visitor Parking,parking,,,,18.5517641,73.8012027
Kekan Petrol Pump (HP),fuel,,,,18.5751028,73.8970804
Indian Oil,fuel,,,,18.5736645,73.8849523
Kalyan Bhel,fast_food,,,,18.5118996,73.8302361
Essar,fuel,,,,25.9145034,83.9449268
Oasis,restaurant,,,,17.2483159,80.1642425
HP,fuel,,,,9.7139177,76.6885664
thottumkal Pump,fuel,,,,9.7126631,76.6905839
Pizza Hut,restaurant,,,,28.4218602,77.0909997
Hyderabad House,restaurant,,,,17.260048,78.386917
Everest,fast_food,,,,17.2480856,80.1483187
Abhiruchi Mess,restaurant,,,,17.2487702,80.1471741
Evergreen,restaurant,,,,32.0107149,77.3179138
Sharma Dhaba,fast_food,,,,32.0007087,77.4406529
Ojin bakes,fast_food,,,,11.2155392,75.7967492
Bharat Petroleum,fuel,,,,11.2157323,75.7972501
Indian Oil,fuel,,,,30.8253282,75.8154075
Rohan Rajdeep Toll Plaza,,,toll_booth,,30.5485751,75.5761201
Indian Oil,fuel,,,,30.5317907,75.5709044
Bombay Restaurant,restaurant,,,,11.2513807,75.7733284
Filfora,restaurant,,,,23.2639205,77.3802723
HP,fuel,,,,28.5490758,77.2501351
In & Out,fuel,,,,28.5503785,77.2478224
Sanjhi Hawali,restaurant,,,,30.6019023,74.2254591
Anand Vihar,fast_food,,,,17.2493224,80.1398825
McDonald's,fast_food,,,,18.5269924,73.8779918
Blue Nile,restaurant,,,,18.5217526,73.8774667
George,restaurant,,,,18.5173226,73.8794126
Skandagiri Parking,parking,,,,13.4240763,77.6916755
Essar,fuel,,,,12.7727154,80.0091004
Indian oil,fuel,,,,32.2583689,77.1880018
HP ramapuram,fuel,,,,9.7999364,76.6585222
Goyal Bakery,fast_food,,,,30.3783124,75.5478687
Anandhas,restaurant,,,,11.0171625,76.9686043
Delhi Sweet,restaurant,,,,11.0121503,76.962482
Ramsons Petrol Station,fuel,,,,11.0108923,76.9820694
New Punjabi Dhaba,restaurant,,,,32.7270852,76.661278
Sonam,restaurant,,,,32.7271243,76.6613122
Chinab Restaurant,restaurant,,,,32.7255668,76.664676
Hindustan Petroleum Corporation Limited,fuel,,,,32.0421996,76.568609
Mahesh Lunch Home,restaurant,,,,18.5208896,73.8725539
Subway,fast_food,,,,17.4262926,78.4480231
Indian Oil,fuel,,,,17.4263594,78.451396
Indian Oil,fuel,,,,17.4435568,78.4877615
Bharat Petroleum,fuel,,,,17.4430364,78.4905722
Bharat Petroleum,fuel,,,,17.4409489,78.5052645
Bharat Petroleum,fuel,,,,17.4397896,78.5089043
Indian Oil,fuel,,,,17.4273769,78.4395446
HP,fuel,,,,17.4367489,78.5179571
Pizza Hut,fast_food,,,,17.4432794,78.4798416
Indian Oil,fuel,,,,17.4449593,78.4671058
Cocos,restaurant,,,,17.4239168,78.4247745
Blue Fox,restaurant,,,,17.4232236,78.4275415
Pizza Corner,fast_food,,,,17.4270696,78.4433431
Minerva Coffee Shop,restaurant,,,,17.4289627,78.4557226
Indian Oil,fuel,,,,17.4445955,78.4616641
Toll Plaza,,,toll_booth,,31.4899327,75.9550752
GNE Staff Parking,parking,,,,30.8583493,75.8597722
Adukala Shap (Toddy Shap),restaurant,,,,9.7589859,76.6216565
Yo! China,fast_food,,,,18.519486,73.8772595
KFC,fast_food,,,,18.521763,73.8763897
Hotel Arali Mara,restaurant,,,,13.3093104,76.942186
Mallanna Hotel,restaurant,,,,13.3081012,76.9415383
Chayakkada,restaurant,,,,9.724737,76.6433517
Airport Car Parking,parking,,,,18.5784277,73.9093571
Toit brewery and Resturant,restaurant,,,,18.5540074,73.9051438
Rajdhani,restaurant,,,,18.5452508,73.9063531
Venu,restaurant,,,,11.0186,76.9618837
Subbu Mess,restaurant,,,,11.016231,76.9681587
Hotel Pavitra,restaurant,,,,13.3121576,76.9404041
Velmurugan Oil Depot,fuel,,,,11.3449707,77.7213375
Athappar Family Restaurant,restaurant,,,,11.3458527,77.7216643
Brindavan Hotels,restaurant,,,,11.3467534,77.7185646
Hotel Mahadeshwara,fast_food,,,,13.3097577,76.9427416
Narayanpura,,,toll_booth,,24.6136837,74.2317593
Indian Oil,fuel,,,,10.9954301,76.9757862
"IBP, Ramapuram",fuel,,,,9.7921661,76.6630901
Pizza Hut,restaurant,,,,28.5917336,77.3484898
Zoo Vehicle Parking,parking,,,,12.87955,80.0807673
Pizza Hut,restaurant,,,,12.9590966,77.6544331
Green Gates,restaurant,,,,11.6293605,76.0881203
Woodlands,restaurant,,,,11.6158447,76.0835445
Club parking,parking,,,,31.0065526,75.7925585
golf curt parking,parking,,,,31.0061947,75.7932113
Taj River View Restaurant,restaurant,,,,32.0420785,76.8411934
Kabab Manor,restaurant,,,,13.0273116,77.5935719
Garden Restaurant,restaurant,,,,17.4418602,78.4988827
Food Magic,fast_food,,,,13.003599,77.6225091
Umar Pulaowala,restaurant,,,,18.9592105,72.8303122
Trishna,restaurant,,,,18.9286576,72.8323932
Ebony,restaurant,,,,12.9753625,77.6051643
Hotel Mahableshwar,restaurant,,,,18.5552434,73.7983529
Clarion Park,parking,,,,18.5586194,73.8043281
Olympia Coffee House,restaurant,,,,18.9226052,72.8312806
Indigo,restaurant,,,,18.9222725,72.8320651
Zamu's Place,restaurant,,,,18.5365716,73.8757543
Sadanand Resorts,restaurant,,,,18.5683679,73.7666377
Elite Empire,parking,,,,18.574226,73.780274
Mantri Lawns,parking,,,,18.5598879,73.8070055
Spicer Health Foods,fast_food,,,,18.5630488,73.8195308
Sarvi Cafe,restaurant,,,,17.4128658,78.4497203
Hard Rock Cafe,restaurant,,,,17.418702,78.4486137
Haveli,restaurant,,,,17.4362425,78.457117
Kamath Hotel,restaurant,,,,17.4408665,78.4971168
Nanking,restaurant,,,,17.4421971,78.4903362
Grand Minerva,restaurant,,,,17.413531,78.445005
Indijoe,restaurant,,,,17.4151382,78.4493609
Aromas of China,restaurant,,,,17.4150666,78.4494682
Sahib Sindh Sultan,restaurant,,,,17.415128,78.4492107
Chilly's Restaurant,restaurant,,,,17.4419971,78.4858784
Sakthi Restaurant,restaurant,,,,11.3490665,77.7190264
TCS parking,parking,,,,17.4426822,78.378129
Dhaneshwar,,,toll_booth,,25.0725696,75.5983782
Indian Oil,fuel,,,,21.0900634,79.054171
Annapoorneshwari,fast_food,,,,12.9548354,77.3120417
Subway,restaurant,,,,17.4432714,78.4787687
Pizza Corner,fast_food,,,,17.4432919,78.4790047
Barista,restaurant,,,,17.4432817,78.4788867
Domino's,fast_food,,,,19.0354809,73.0634165
McDonald's,fast_food,,,,19.0308533,73.0665721
Khaniwade Toll Plaza,,,toll_booth,,19.5190106,72.9170303
Little Imperial,restaurant,,,,13.0228247,77.6477855
Petrol Pump,fuel,,,,30.8694557,75.8541964
Hot Spicy Dhaba,fast_food,,,,30.875037,75.8792076
Heaven Resorts,restaurant,,,,30.8746677,75.8699301
Bharat Patroleum,fuel,,,,30.8747471,75.8683964
Petrol Pump Pakka College Road,fuel,,,,30.3710792,75.5483042
Mehfil Restaurant,restaurant,,,,30.3749836,75.537699
Singla Marriage Palace,restaurant,,,,30.3745073,75.5252474
Petrol Pump,fuel,,,,30.3610015,75.5337314
C'not,restaurant,,,,28.3564583,75.5913923
Kusgaon,,,toll_booth,,18.7602923,73.4299695
Sai Hotel,restaurant,,,,18.709118,73.47936
Singla Sweets,fast_food,,,,30.3717311,75.5498612
Kailash Restaurant,restaurant,,,,33.4688062,76.8787337
Lhasa Restaurant,restaurant,,,,33.467566,76.8782919
Pipula Tea Tent,restaurant,,,,33.2672097,77.0385905
Kargyak Tea Tent,restaurant,,,,33.0641344,77.2255895
Palamo Tea Tent,restaurant,,,,32.7367698,77.1475194
Casa Bella Vista,restaurant,,,,32.2522728,77.180156
Hotel Metropolis,restaurant,,,,28.6407045,77.2105994
Piccadelhi,restaurant,,,,28.635243,77.2196937
Water Front,restaurant,,,,17.4215194,78.4653707
Indian Oil,fuel,,,,17.4550905,78.4855131
Pakwaan,restaurant,,,,17.455822,78.4849223
Indian Oil,fuel,,,,17.4684922,78.481253
"Bharat Petroleum, Gill Road",fuel,,,,30.8508329,75.8605518
Nokia Solutions and Networks,parking,,,,13.0468945,77.618867
Singh Fast Food & Confectionary,fast_food,,,,30.8719009,75.8798637
Chung Fa,restaurant,,,,18.5169144,73.8794546
Mayur Thali,restaurant,,,,18.5166042,73.8795245
Hyderabad Biryani House,restaurant,,,,12.959041,77.6564566
KFC,fast_food,,,,13.0738558,80.2216203
McDonald's,fast_food,,,,13.0738688,80.2214298
Parliament Visitor Parking,parking,,,,28.6162015,77.2100168
Ambatt Restaurant,restaurant,,,,9.9783375,76.3340597
Empire,restaurant,,,,12.9699613,77.6473796
Khalsa Sweet Shop,fast_food,,,,30.8656649,75.8673719
Sri Ganesh Food Point,restaurant,,,,12.9149626,77.6149914
Dhingra Sweet Shop,fast_food,,,,30.8750825,75.844883
Basant Restaurant,restaurant,,,,30.8738668,75.8425627
Domino's Pizza Hut,fast_food,,,,30.8739405,75.8424259
Beijing Bites,restaurant,,,,12.913127,77.6101684
Punjabi Swag,restaurant,,,,12.9136689,77.6099505
Udupi Upahar,restaurant,,,,12.9387161,77.5534116
Anna Kuteera,restaurant,,,,12.9261046,77.5502503
Shanthi Sagar,restaurant,,,,12.9237141,77.5534616
IBP Petrol Station,fuel,,,,12.9380085,77.5496081
Ganesh Bhavan,restaurant,,,,12.9437007,77.5649097
Schezwan,restaurant,,,,13.1028474,77.5770272
Namma Mane,fast_food,,,,13.1061576,77.5798146
Mallu Bakery,fast_food,,,,13.1044566,77.5832328
Kadai,fast_food,,,,13.103198,77.5842815
The Silk Route Restaurant,restaurant,,,,27.1618212,78.037468
"There are 3 in this line HP, IOC etc",fuel,,,,9.9061403,76.7108479
Dhaba,restaurant,,,,13.0813079,80.2742022
McDonald's,fast_food,,,,31.8329667,75.656091
Indian Oil Corporation Limited,fuel,,,,30.6442177,75.8570837
Hindustan Petroleum Corporation Limited,fuel,,,,30.7019918,75.8479997
HP,fuel,,,,30.6852137,75.8525323
Bharat Petroleum,fuel,,,,30.6720539,75.854052
Indian Oil Corporation Limited,fuel,,,,30.3635949,75.856126
IO British Pentroleum,fuel,,,,29.9135967,76.0953002
British Pentroleum,fuel,,,,30.427891,75.8872692
Indian Oil Corporation Limited,fuel,,,,30.3523748,75.8546196
Hindustan Petroleum Corporation Limited,fuel,,,,29.8071502,76.1222758
IO British Pentroleum,fuel,,,,29.8260411,76.1144116
Indian Oil Petrol Bunk,fuel,,,,28.1433821,76.6018971
IO British Pentroleum,fuel,,,,28.1915989,76.6160158
Indian Oil,fuel,,,,27.3534419,95.3160574
Bharat Petroleum,fuel,,,,13.0073497,80.2002828
TVS Electronics,,,,industrial,13.0145025,80.2001435
Eden Dhaba,restaurant,,,,12.931753,77.68645
Calcutta Victoria Chat House,fast_food,,,,12.9644314,77.7161868
Hub Mall Parking,parking,,,,19.1543249,72.8561194
Balaji Rest.,restaurant,,,,19.1546492,72.8561961
McDonald's,fast_food,,,,19.1546087,72.856386
WR Parking,parking,,,,19.1647922,72.8501456
Sai Veg World,restaurant,,,,19.1648094,72.8502701
Domino's,fast_food,,,,12.9858685,77.6687185
Ruchi Restaurant,restaurant,,,,12.973597,77.678189
Gujarati Bhavan,restaurant,,,,8.0829273,77.539247
Srinidhi Sagar,fast_food,,,,12.9918361,77.7204816
Chillys,restaurant,,,,12.9916553,77.7207261
Chatni,restaurant,,,,25.2941407,83.0050673
Marwadi Bhojanalay,restaurant,,,,25.311842,83.0109213
Phulwari Restaurant,restaurant,,,,25.3099636,83.0071967
Cheeky Chapatti,restaurant,,,,15.012672,74.02358
Bhagini Restaurant,restaurant,,,,12.989294,77.7125997
Indian Oil,fuel,,,,12.9594013,80.2139555
Pizza Hut,restaurant,,,,12.9972009,77.540616
Blue Waves,restaurant,,,,15.3103725,73.9022845
Island View Restaurant,restaurant,,,,15.3198731,73.899254
Kokam kitchen,restaurant,,,,17.4038249,78.3907122
Indiana Restaurant,restaurant,,,,27.1601592,78.0373656
Khera Tolls,,,toll_booth,,27.1148811,77.715956
Rajasthan Hotel Restaurant,restaurant,,,,27.0551003,76.9497468
Rajadhok Toll Plaza,,,toll_booth,,26.8589158,76.1041021
kumaris,restaurant,,,,8.736153,76.70676
Ludhewai Toll Plaza,,,toll_booth,,27.1785005,77.4167982
Amoli Toll Plaza,,,toll_booth,,27.1013486,77.0909093
Fish n Chips,restaurant,,,,9.964454,76.24319
Hotel Parichay,restaurant,,,,18.5435148,73.7841772
Hotel Prasanna,restaurant,,,,18.5435326,73.7844503
Cafe Sol,restaurant,,,,31.1021875,77.1773851
Indian Coffee House,restaurant,,,,31.1053541,77.1708591
Upstairs Italian Restaurant,restaurant,,,,9.9654331,76.2435872
Uttam Bhandar,fast_food,,,,27.3581168,95.3141645
Bharat Petroleum,fuel,,,,17.5987891,80.7050072
ArmaDQ,restaurant,,,,12.9773708,77.6954828
BLR37 Bar & Kitchen,restaurant,,,,12.9805079,77.6937246
Domino's,fast_food,,,,13.0344347,80.2134924
Sangamam Chettinad Hotel,restaurant,,,,13.0349987,80.2163485
Anajappar,restaurant,,,,13.0328373,80.212066
Pankaj,restaurant,,,,11.6093455,76.0819669
Trio,restaurant,,,,26.9161389,70.9104431
Ankur Family Restaurant,restaurant,,,,12.9890678,77.7116566
Anjappar,restaurant,,,,11.016383,76.9713884
Papu's Restarunt,restaurant,,,,11.0405531,76.982219
Airtel,parking,,,,11.0145705,76.9876731
KFC,fast_food,,,,17.4357767,78.4883632
Nakshatra,restaurant,,,,17.4409765,78.4879985
Octroi Gate,,,toll_booth,,17.4517849,78.4858956
Hotel Hut,restaurant,,,,13.3399335,77.1040892
Vigneshwara Auto LPG Gas,fuel,,,,13.3384041,77.1060446
K.R Extention Bunk,fuel,,,,13.3386561,77.1060699
Velu Restaruents,restaurant,,,,11.0390001,76.9797003
Thai Unavagam,restaurant,,,,11.039397,76.9804676
KR Restarunt,restaurant,,,,11.0375822,76.9788671
KR Restarunt,restaurant,,,,11.0360464,76.9784073
Restaurent,restaurant,,,,11.0418607,76.9824576
Restaurent,restaurant,,,,11.0375434,76.9791006
Ganesh Mess,restaurant,,,,11.0139349,76.9869724
Veg Hotel,restaurant,,,,11.0409231,76.9823012
Food Republic,fast_food,,,,17.4442239,78.3804557
Big Dosa,restaurant,,,,17.4474117,78.3806242
4 Seasons,restaurant,,,,17.4580493,78.3716287
Club Jayabheri,restaurant,,,,17.460477,78.3716908
Subway,fast_food,,,,17.4579981,78.3716555
Bayview by Vivanta,restaurant,,,,12.7983217,80.2493403
Spice Garden,restaurant,,,,12.9570571,77.7091042
HP fuel station,fuel,,,,17.4634786,78.4736466
IBP,fuel,,,,10.9630048,76.9550773
Swagat Restaurent,restaurant,,,,10.8943606,76.931817
Hotel Swists,restaurant,,,,20.5749173,86.7084487
Dhaba,restaurant,,,,20.5725705,86.7074395
BP,fuel,,,,20.5740855,86.7083355
Marwari Bhojanalay,restaurant,,,,20.4571539,85.8835072
KTDC Motel Aaram,restaurant,,,,9.164009,76.7204448
BP,fuel,,,,19.8128992,85.8303881
Indian Oil,fuel,,,,13.0553995,77.5072996
Shankara Bhavan,restaurant,,,,13.051775,80.2430546
Infusion Restaurant,restaurant,,,,12.9656267,77.7018348
Indian Coffee House,restaurant,,,,11.2447712,75.7847303
Gayatri Pure Veg,restaurant,,,,18.6584092,73.7689483
Sai Dabeli Centre,fast_food,,,,18.5433033,73.7849183
Ullas Refreshment,restaurant,,,,12.9745381,77.6096029
Shivanjali Restaurant and Bar,restaurant,,,,18.5425963,73.7887912
Elements,restaurant,,,,13.0015628,77.5993592
Domino's,fast_food,,,,13.026704,80.2641228
McDonald's,fast_food,,,,13.042947,80.2741274
Subway,fast_food,,,,12.9729051,77.6074026
McDonald's,fast_food,,,,28.3751984,76.95432
Delhi Hotel,restaurant,,,,13.0880874,80.2757144
Food Court - Essel World Entrance,fast_food,,,,19.2358042,72.8034784
Domino's,fast_food,,,,19.2307857,72.8061676
Landmark Heights Apartment Parking,parking,,,,19.283957,72.8740474
Sagar Hospital Parking,parking,,,,12.9276723,77.5998977
Essel World Parking,parking,,,,19.2397678,72.80233
Hungry Panda,restaurant,,,,12.934729,77.6125976
Aakash Restaurant,restaurant,,,,9.9850012,77.0016284
Reddys,restaurant,,,,12.9855001,77.6732164
Bakers Park,fast_food,,,,12.9854324,77.6791217
Gokula Petrol / Gas Station,fuel,,,,12.9979379,77.6706603
Iceland,restaurant,,,,15.2760556,76.3885296
Domino's,fast_food,,,,12.980808,77.6406008
Kund,restaurant,,,,12.980115,77.6405511
Paratha Shop,fast_food,,,,13.0301779,77.5708089
Canteen,restaurant,,,,12.9705339,79.1544609
Karaikudi,restaurant,,,,13.0448865,80.2644988
Indian Oil Petrol,fuel,,,,12.5095313,74.9860266
Chung WAH,restaurant,,,,12.9792064,77.7513027
Port Royal,restaurant,,,,19.220231,73.0884675
Indian Oil,fuel,,,,9.6898169,76.7745305
NIAS,parking,,,,13.0295577,77.5634442
Highgates Hotel,restaurant,,,,12.9753754,77.6028942
McDonald's,fast_food,,,,12.9670593,77.7167619
Hotel Zaica,restaurant,,,,12.9673994,77.7146901
Gangothri Restaurant,restaurant,,,,12.9377655,77.6267552
Pizza Hut,restaurant,,,,12.9398542,77.6251855
Taco Bell,fast_food,,,,12.9376227,77.6269262
Matthan,restaurant,,,,12.9594188,77.6486258
Hotel Sre Aryas,restaurant,,,,9.7079704,76.6727766
Thripthy,restaurant,,,,9.699608,76.7283278
Beijing Bites,restaurant,,,,12.9800208,77.7271185
The Mark Boulevard,restaurant,,,,12.9716416,77.7176798
Hotel Janardhana,restaurant,,,,12.9856254,77.5788885
Domino's,fast_food,,,,12.9930001,77.7027197
SLV Fast Food,fast_food,,,,12.9672919,77.5426111
Durga Chats,fast_food,,,,12.9724264,77.5388651
Paratha Point,fast_food,,,,12.9672031,77.541844
LJB Iyengar's Bakery,fast_food,,,,12.9676187,77.541608
Twilight Takeout,restaurant,,,,13.0544491,80.2392199
Hotel Kinara,fast_food,,,,18.507489,73.8063898
Pratik Paav Bhaji,fast_food,,,,18.507835,73.8090612
MRA Bakery and Restaurant,restaurant,,,,11.8711385,75.3673989
Bharat Petroleum,fuel,,,,8.9782743,77.2480889
Indian Oil,fuel,,,,28.5703117,77.1865562
Sawkala,,,toll_booth,,24.5996723,84.7028247
Sasaram,,,toll_booth,,24.9571155,83.9549476
Sasaram,,,toll_booth,,24.9571962,83.9550074
Sawkala,,,toll_booth,,24.5994623,84.702729
Indian Oil,fuel,,,,12.9916942,77.5457901
Palika Bhawan,parking,,,,28.5710889,77.1845461
Kabab Studio,restaurant,,,,12.9853569,77.5792692
Sagar Restaurant,restaurant,,,,13.0083726,80.2106059
Foody's,restaurant,,,,12.9578638,77.5932147
Bhaghat Tarachand,restaurant,,,,19.0721053,73.00832
HDFC Bank Parking,parking,,,,12.9592574,77.7163915
McDonald's,fast_food,,,,19.0721358,72.9987418
Olive Beach,restaurant,,,,12.966942,77.60796
Kusgaon,,,toll_booth,,18.7604749,73.4281171
HP Petrol Station,fuel,,,,17.7205886,83.3204553
Vagdevi School Parking,parking,,,,12.9454128,77.7104038
Maddur Tiffany,restaurant,,,,12.6056914,77.052838
Sunrise Restaurant,restaurant,,,,12.6188384,80.1970905
Luna Magica,restaurant,,,,12.6205948,80.1982325
Indian Oil,fuel,,,,13.1715052,79.614827
MES Canteen,restaurant,,,,10.8294038,76.0234363
USO parking,parking,,,,28.5422971,77.1785053
Sunitha,restaurant,,,,13.3316586,77.1138587
Gulf Restaurant,restaurant,,,,17.4634888,78.4734427
Indian Oil,fuel,,,,12.8560784,80.0700462
Subway,fast_food,,,,12.9598156,77.7483032
MTR,restaurant,,,,12.9598156,77.7481385
McDonald's,fast_food,,,,12.9598101,77.748238
Taj Express,fast_food,,,,12.9598302,77.7474647
Ala Dakshinapuramlo,restaurant,,,,12.9598316,77.7473381
Rajdhani Snacklet,fast_food,,,,12.9598156,77.7485602
Beijing Bites,fast_food,,,,12.9598375,77.7476967
Pind Balluchi,restaurant,,,,12.9598229,77.7479363
KFC,fast_food,,,,12.9596115,77.7473085
GoPizza,fast_food,,,,12.9598068,77.7484572
Toscano's,restaurant,,,,12.9598943,77.7481291
Indian Oil,fuel,,,,18.7904737,73.2997286
Hot N Cool,fast_food,,,,12.8511373,77.6572789
Krishna Bhavan Restaurant,restaurant,,,,15.2755445,76.3897874
GRR Hotel,restaurant,,,,13.0065995,76.0997034
Pai Vista,restaurant,,,,12.310994,76.6593118
RRR Hotel,restaurant,,,,12.3110944,76.6550151
Indra Cafe's Paras,restaurant,,,,12.3100755,76.6528438
Arun Darshan,restaurant,,,,12.3104659,76.6578166
Aravind Service Station,fuel,,,,12.3111204,76.6447296
Hotel Zameera,restaurant,,,,12.3100962,76.6566137
Hotel Iyengar's,restaurant,,,,12.3103638,76.6577443
Hotel Santosh,restaurant,,,,12.3104513,76.6579302
Domino's,fast_food,,,,12.9263049,77.6803137
McDonald's,fast_food,,,,12.9264201,77.6805202
Fast Food,fast_food,,,,18.7117934,73.6526477
गोकुळ,restaurant,,,,18.588516,73.7830226
The Garuda Express Hotels,restaurant,,,,10.5198149,76.2118632
Elite Hotel,restaurant,,,,10.5220891,76.2137309
Mahiti Infotech,,,,industrial,13.0376828,77.6128514
Kamadenu,fuel,,,,12.4153491,75.7486734
Taj,restaurant,,,,31.3849282,75.3818398
Khokhraj/Sirohi,,,toll_booth,,25.5762311,81.5295524
Khokhraj/Sirohi,,,toll_booth,,25.576061,81.5296638
Patel Restaurant,restaurant,,,,11.4098329,76.705814
Hotel Vinoth,restaurant,,,,11.4615707,76.5507416
Zamzam,fast_food,,,,11.4015237,76.7017126
Hyderabad Byriani House,restaurant,,,,11.4096913,76.7061472
Ana Menakshree Restaurant,restaurant,,,,9.9188777,78.1124742
SRM Mess,restaurant,,,,9.9179306,78.1126824
Sree Sabarees,restaurant,,,,9.9180341,78.1127156
Kabab Corner,restaurant,,,,11.4097695,76.7056455
Sri Vishnu Palace,restaurant,,,,12.979486,77.6951134
Plate 99 Restaurant,restaurant,,,,12.979298,77.6951854
Punjabi Dhaba,restaurant,,,,10.2354195,77.4921081
Royal Tibet,restaurant,,,,10.2361,77.4908635
RR Restaurant,restaurant,,,,10.2347504,77.4907836
Bharat Petroleum,fuel,,,,10.23488,77.4908169
Pizza Hut,restaurant,,,,12.9570622,77.7087772
Heritage,restaurant,,,,19.16602,72.8519069
Ruchi Restaurant,restaurant,,,,10.2353759,77.4925579
Tava Restaurant,restaurant,,,,10.2350876,77.4910712
Meenakshi Bhavan,restaurant,,,,10.2387279,77.487787
Pizza Corner,fast_food,,,,10.2361465,77.4907599
Al Baiq,restaurant,,,,10.2389253,77.4955348
Red Apple Restaurant,restaurant,,,,10.2358096,77.4927441
Hotel Astoria,restaurant,,,,10.235564,77.492432
Hotel Darling,restaurant,,,,10.2350202,77.4927271
Sree Aryas Restaurant,restaurant,,,,10.0070886,77.4728658
Bharat Petroleum,fuel,,,,19.1661306,72.8458433
Ratna,restaurant,,,,19.1633476,72.8461207
krishna bhavan,fast_food,,,,13.0293344,80.2306558
shanmukas,restaurant,,,,13.0277769,80.2308167
Sri Ashvini Karaikudi Chettinad Restaurant,restaurant,,,,10.0738421,77.0621718
Station service Carburants,fuel,,,,10.0722788,77.0617468
Rapsy Restaurant,restaurant,,,,10.0880375,77.0603339
Danial Restaurant,restaurant,,,,10.1246621,77.2444766
Hotel Kemila,restaurant,,,,10.1234119,77.245349
Abi Cafe,restaurant,,,,10.1231691,77.245619
Cream Centre,restaurant,,,,13.0671869,80.2460438
Aangan Restuarant,restaurant,,,,28.6361048,77.0652214
Domino's,fast_food,,,,19.1631866,72.8461076
Parking for High Voltage Engineering,parking,,,,13.0144226,77.571374
Bharat Petroleum,fuel,,,,13.031147,80.0355292
Sreepadmam,restaurant,,,,8.7327795,76.7105793
Parking- Mathematics Department,parking,,,,13.0187524,77.5690713
Hotel Tibet,restaurant,,,,32.238668,76.324162
Topchen Restaurant,restaurant,,,,31.6326963,76.8329161
Indian Food,restaurant,,,,27.1688145,78.0434741
Yash Cafe,restaurant,,,,27.1689719,78.0433615
Metro Pay & Park,parking,,,,9.9434364,76.3741835
Elevated Section/ Electronic City,,,toll_booth,,12.8461978,77.6717276
Reliance Petroleum Pump,fuel,,,,10.0685805,76.6137294
Hotel Lucky Star,restaurant,,,,9.9641498,76.2454957
Sri Krishna Café,restaurant,,,,9.9578571,76.2546772
Indian Oil,fuel,,,,9.9687447,76.2442355
PUMP,fuel,,,,10.066722,76.6161289
Talk of the Town,restaurant,,,,9.9652413,76.2436927
Hotel Sri Rama Bhavan,restaurant,,,,12.8757737,74.8415045
Taj Mahal Cafe,restaurant,,,,12.8755432,74.8409099
Hao Ming,restaurant,,,,12.8734842,74.8527432
Domino's,fast_food,,,,12.8713819,74.8569322
Datta Snacks Corner,fast_food,,,,18.9701838,73.1319872
Vikravandi Toll Plaza,,,toll_booth,,12.0243108,79.5381321
Dhaba,restaurant,,,,30.0809711,78.3408181
Civic Toll,,,toll_booth,,8.0925973,77.5492293
Dwaraka,restaurant,,,,9.7000878,76.72779
Wings n Fries,fast_food,,,,17.4631866,78.3673211
Spice Village,restaurant,,,,17.4619106,78.3668939
Oysters Blue,restaurant,,,,17.4582319,78.3661208
Bawarichi,restaurant,,,,17.4612961,78.3668145
Tasty Food TamilNadu cuisine,restaurant,,,,17.46463,78.3663797
HazelNut Bakers,fast_food,,,,17.4647351,78.3671468
HighLand NonVeg,restaurant,,,,17.4644587,78.3671147
Angaara,restaurant,,,,17.4597233,78.3665008
Watermelon stalls,fast_food,,,,19.0081693,73.1074495
Orchard Restaurant,restaurant,,,,30.3894893,78.0947391
McDonald's,fast_food,,,,18.4910236,73.9002012
Atlantis,restaurant,,,,18.4909464,73.9002064
Chicken kabab,restaurant,,,,17.4391462,78.3636441
Punjabi Rasoi AC,restaurant,,,,17.4389632,78.3642986
Common Ground,restaurant,,,,32.2392826,76.3242235
Norling Restaurant,restaurant,,,,32.2372363,76.3242365
Lungta Japanese Restaurant,restaurant,,,,32.235603,76.3270237
Nanking Restaurant,restaurant,,,,30.333637,78.0163405
McDonald's,fast_food,,,,18.9387735,72.8344385
Fuel Hp,fuel,,,,22.3342501,70.8874181
Hindustan Petroleum,fuel,,,,23.1768017,72.5737935
Fuel Sertha Road,fuel,,,,23.211777,72.5280508
Fuel indian oil,fuel,,,,23.6227331,72.3892251
Pizza Hut,restaurant,,,,19.221108,72.9771932
Domino's,fast_food,,,,19.2475859,72.977702
McDonald's,fast_food,,,,19.2172357,72.9790879
Indian Oil,fuel,,,,9.9952085,76.2926727
Fuel,fuel,,,,22.2032701,73.1923745
Fuel,fuel,,,,21.6589734,73.0601931
Fuel,fuel,,,,21.5772542,72.9979112
Fuel,fuel,,,,21.5866414,72.9954063
Fuel,fuel,,,,21.3424228,72.9586925
Fuel,fuel,,,,21.3758248,72.9583133
Fuel,fuel,,,,20.9181022,73.0159814
Fuel,fuel,,,,20.7618766,73.0629989
Fuel,fuel,,,,20.8091822,73.1627986
Fuel,fuel,,,,20.7828003,73.3539815
Fuel,fuel,,,,20.5718412,73.7500323
Fuel,fuel,,,,20.327692,73.8877129
Fuel,fuel,,,,20.780052,73.0636215
Fuel,fuel,,,,20.8040784,73.071903
Fuel,fuel,,,,20.1709596,73.8258111
Fuel,fuel,,,,20.0428164,73.8056708
Aakash Petrol Pump,fuel,,,,20.0389977,73.8048501
Fuel,fuel,,,,20.0345063,73.8031567
Fuel,fuel,,,,20.2666186,73.8523815
Fuel,fuel,,,,19.9940832,73.7959137
Fuel,fuel,,,,19.9180986,73.7129074
Fuel,fuel,,,,19.4176891,73.2772761
Fuel,fuel,,,,19.5443871,73.3539583
Fuel,fuel,,,,19.3699217,73.1872427
Bharat Petroleum,fuel,,,,19.4429725,73.3027023
Fuel,fuel,,,,19.7267591,73.6320195
Fuel,fuel,,,,19.6276479,73.4506874
Fuel,fuel,,,,19.5550132,73.369297
Fuel,fuel,,,,19.3628051,73.1670753
Fuel,fuel,,,,19.3590153,73.163199
Fuel,fuel,,,,19.2498586,73.054057
Fuel,fuel,,,,19.3222442,73.1078976
Fuel,fuel,,,,19.3492687,73.1421804
Shawa Shawa Dhaba,restaurant,,,,31.6167324,74.690317
Indian Oil Fuel Station,fuel,,,,8.7329748,76.7292724
Vaidyar's Teashop,fast_food,,,,8.7588237,76.7199941
Ashoka Restaurant,restaurant,,,,32.2373867,76.3243067
Dokebi Restaurant,restaurant,,,,32.2357688,76.3272627
Woeser Cafe & Bakery,restaurant,,,,32.2368374,76.325369
Rice Bowl,restaurant,,,,30.4561218,78.0782441
041,,,toll_booth,,22.3115747,70.8296442
Al Reef Restaurant,restaurant,,,,12.9712514,80.2583585
Kumarakom,restaurant,,,,12.9721108,80.2190709
Bangla Foods,restaurant,,,,28.6333595,77.2083619
Pizza Hut,restaurant,,,,18.5191455,73.8775238
Hotel,restaurant,,,,15.3493342,76.1717474
Adyar Ananda Bhavan,restaurant,,,,11.9353156,79.8331401
HP,fuel,,,,31.3591576,75.44284
Khana Khzana,restaurant,,,,30.4037498,74.0218014
Petrol Pump,fuel,,,,30.4322294,74.0542893
Petrol Pump,fuel,,,,30.4234028,74.0435442
Kale Da Dhaba,fast_food,,,,30.4225139,74.0449851
Dhanmal Ganga Ram,fuel,,,,30.4108185,74.0349623
Des Samosa,fast_food,,,,30.4031794,74.0252306
Badri Gol Gape,fast_food,,,,30.4022666,74.0276859
Bansi Pakora,fast_food,,,,30.4051821,74.0251378
PakPatnia Di Hatti,fast_food,,,,30.4057597,74.0259117
Gawri Petrol Pump,fuel,,,,30.4085153,74.0289454
Thattukada,fast_food,,,,9.57301,77.0920911
Top City,restaurant,,,,12.8710593,80.2266785
Kadma Petrol Pump,fuel,,,,22.8047296,86.1670417
Anantram,,,toll_booth,,26.5950131,79.2682668
Anantram,,,toll_booth,,26.5947638,79.2680005
Hotel Virangula,restaurant,,,,17.8686228,73.9596749
Hotel Palavi,restaurant,,,,18.5098693,73.8144673
Hotel Durga,fast_food,,,,18.5103221,73.8163126
Khana E Khaas,fast_food,,,,17.4390971,78.3984902
Indian Oil,fuel,,,,17.4990452,78.5134502
Ram Das Bhatta Petrol Pump,fuel,,,,22.7941981,86.1756098
Gopal Maidan Petrol Pump,fuel,,,,22.798926,86.183871
Bistupur Petrol Pump,fuel,,,,22.7960378,86.1839675
Petrol Pump,fuel,,,,22.7957401,86.2120951
Golmuri Petrol Pump,fuel,,,,22.7938905,86.2242938
Baridih Petrol Pump,fuel,,,,22.7925255,86.2400866
Novelty Restaurant,restaurant,,,,22.7949922,86.1834678
Gingercourt,restaurant,,,,17.4404184,78.3935111
Pizza Hut,restaurant,,,,17.4453139,78.3863774
Naiks,restaurant,,,,16.7047795,74.2413868
Mahaveera Tiffin Centre,fast_food,,,,17.4642845,78.4834609
Dev Krupa Petrol Pump,fuel,,,,18.6678408,73.8905684
Aruna Cafe,restaurant,,,,12.2221972,79.048692
Rankala Choupati,fast_food,,,,16.6945757,74.2141019
Chat,fast_food,,,,12.9711101,77.6342171
Domino's,fast_food,,,,13.0215955,77.6393557
Lalit Refreshments,restaurant,,,,18.9348434,72.8337446
Shree Sagar CTR,restaurant,,,,12.9982568,77.5694946
Parota Point,fast_food,,,,13.0087998,77.5634096
Food Camp,restaurant,,,,13.0009296,77.5723686
Sri Sai Dosa Center,restaurant,,,,13.0010829,77.5721394
Rahul Sweets and Namkin,fast_food,,,,26.4637944,80.2941124
Amrut Ice-cream,fast_food,,,,13.0018529,77.5671939
Papa John's,fast_food,,,,12.913287,77.651677
Indian Oil,fuel,,,,28.6243328,77.3749465
Shalimar,restaurant,,,,18.957924,72.8324233
Eden Park,restaurant,,,,12.9831559,77.5987115
Mevad,,,toll_booth,,23.5273946,72.388176
Ravindra Bharathi Car Parking,parking,,,,17.4030989,78.466749
Kanpur Central Parking (Contonment Side),parking,,,,26.4536114,80.3515366
Kanpur Central Parking (City Side),parking,,,,26.4551032,80.3512287
Rasoiya Dhamna,,,toll_booth,,24.3234067,85.387981
Pallavi Grand,restaurant,,,,12.8482581,77.6625319
Indian Oil,fuel,,,,12.8388774,77.6783157
Pradhan Line Hotel,restaurant,,,,22.8248414,86.2748259
Paschim Madati,,,toll_booth,,26.5689581,88.2753729
Paschim Madati,,,toll_booth,,26.569075,88.2752612
Cafe Souq,restaurant,,,,23.0410467,72.5485619
Upper Crust Cafe,restaurant,,,,23.0412121,72.5485673
Boomerang Ice Creams,restaurant,,,,11.0057376,76.9692491
Bon Bon Ice Creams,restaurant,,,,11.0169245,76.9679214
Bon Bon Ice Creams,restaurant,,,,11.0068841,76.9508118
KB Fuels,fuel,,,,9.9213322,78.0931573
Car parking,parking,,,,12.9684237,80.2192272
Pizza Hut,restaurant,,,,12.9040043,77.5734008
Domino's,fast_food,,,,12.8940827,77.5679951
Sri Krishna Upahar,fast_food,,,,12.894203,77.5681238
Mobil Petrol / Gas Station,fuel,,,,12.8910036,77.5646686
Punjabi Dhaba,restaurant,,,,15.5452422,73.7568773
Suraj Petrol Pump,fuel,,,,22.7725455,86.2500927
SALE TAX BARRIER,,,toll_booth,,30.7333837,76.6960315
Haveli,restaurant,,,,30.8556263,75.7001341
IBP,fuel,,,,30.8379282,75.6538346
Rohan Rajdeep Toolwayz,,,toll_booth,,30.802597,75.6530181
Banskopa Toll Plaza,,,toll_booth,,23.4911363,87.3765094
Banskopa Toll Plaza,,,toll_booth,,23.4912221,87.3765716
TOLL PLAZA TANDA ROAD,,,toll_booth,,31.5625416,75.8470841
Domino's,fast_food,,,,15.4986227,73.8277226
Maharaja,restaurant,,,,15.3630067,73.9256883
O Coqueiro,restaurant,,,,15.5320101,73.8249052
Sue's Kitchen,restaurant,,,,12.9793502,77.6421411
Mainland China,restaurant,,,,12.9621543,77.6418716
Kota Kachori,fast_food,,,,12.9362306,77.6254307
Coast to Coast Sea food restaurant,restaurant,,,,12.9370423,77.6245906
Tamrind Restaurant,restaurant,,,,12.9342471,77.6234716
Kubey Seafood Restaurant,restaurant,,,,12.9370998,77.6245424
CITY POINT,fast_food,,,,31.1056254,77.1702466
Dankuni,,,toll_booth,,22.6988287,88.2888271
Dankuni,,,toll_booth,,22.6988901,88.2889466
Palsit,,,toll_booth,,23.1787004,88.0263132
Palsit,,,toll_booth,,23.1787454,88.0264309
Nivedita Setu,,,toll_booth,,22.6541133,88.3250505
Nivedita Setu,,,toll_booth,,22.6544995,88.3251393
Chawla's Chicken Treat,restaurant,,,,30.3386465,76.3815716
Udupi Swada,restaurant,,,,12.9075699,77.5640131
Kadirenahalli Petrol Pump,fuel,,,,12.9134732,77.5590565
Prasiddhi,restaurant,,,,12.9109843,77.5791221
Indian Oil,fuel,,,,12.895836,77.5818445
Nandhini Deluxe,restaurant,,,,12.9056456,77.5855728
Sonia petrolpump,fuel,,,,30.6049689,74.2489601
Incara,restaurant,,,,12.9027732,77.5837541
Shakuntala Filling Station,fuel,,,,25.1737096,83.0991292
McDonald's,fast_food,,,,28.5234495,77.2073909
Enjoy Cafe,restaurant,,,,17.4847615,78.4972581
Samrat,restaurant,,,,18.9304448,72.8265816
Relish,restaurant,,,,18.93036,72.8265145
HP,fuel,,,,17.4663599,78.5051965
KFC,fast_food,,,,17.4567641,78.4994603
McDonald's,fast_food,,,,17.4649189,78.5034106
Biryani Darbar,restaurant,,,,17.4711239,78.5081255
Jay Bee Resorts(J.B.Resorts),restaurant,,,,30.9260933,74.6131518
Shere Punjab Dhaba,restaurant,,,,30.9260954,74.6137551
Lotan Fish Corner,fast_food,,,,30.9250121,74.6151245
Harish Vegetarian,restaurant,,,,30.9519298,74.6129793
Petrol Pump (Bal Mukand and sons),fuel,,,,30.9523812,74.6127938
Harish Dhaba,restaurant,,,,30.9406857,74.6168276
Petrol Bunk,fuel,,,,17.9997875,79.5555097
Sabari Juice Junction,fast_food,,,,12.9687955,77.6488858
Beijing Bites,restaurant,,,,12.9690594,77.6479877
Adalath Petrol Bunk,fuel,,,,17.9975376,79.5530393
Sagar Hospital Parking,parking,,,,12.9085182,77.5650897
Sree Bawarchi Biryani House,restaurant,,,,18.0098875,79.5616153
Reshma Bakery,fast_food,,,,17.9954398,79.5482563
Petrol Bunk,fuel,,,,18.0010162,79.5561849
Golden Palms Visitors Parking,parking,,,,13.0645959,77.6385277
Metropolice Petrol pump,fuel,,,,28.7837499,79.0175614
Bharat Petroleum,fuel,,,,12.6409377,78.0640491
Petrol Bunk,fuel,,,,17.9896583,79.533374
Shivalik,fuel,,,,30.9032168,75.7815039
Ahuja Petrol Pump,fuel,,,,28.7801343,79.0264234
Kumar Petrol Pump,fuel,,,,28.7796782,79.0261927
Cafeteria,fast_food,,,,23.1887134,72.6268235
Aman Dosa(Adda Lal kurti),fast_food,,,,30.9220804,74.6178716
Subway,fast_food,,,,17.4954729,78.3534265
Rawalpindi Vaishno Dhaba,restaurant,,,,30.9292303,74.6212807
Indian Oil Petrol Pump,fuel,,,,30.9300544,74.6142011
Octroi,,,toll_booth,,30.9368883,74.618831
Madaan Sweets,fast_food,,,,30.9295521,74.6217454
Kumar Vaishno Dhaba,restaurant,,,,30.9292718,74.6228837
Regency,restaurant,,,,19.1135596,72.8527427
Guru Nanak Petrol Pump,fuel,,,,19.1161423,72.8563549
HP,fuel,,,,19.1147257,72.8596325
Adda Fees Octroi,,,toll_booth,,30.9306386,74.6247263
Main Octroi Rly Road,,,toll_booth,,30.9304535,74.6215433
Dhaba BTW,restaurant,,,,30.9394474,74.6235474
Samundri Petrol Pump,fuel,,,,30.9298734,74.620176
Raamu Halwayi,fast_food,,,,30.9269573,74.6210723
Bhateliya,restaurant,,,,29.4364021,79.6493554
Mehmaan Restaurant,restaurant,,,,30.9274958,74.6192016
Paachoo Golgappe wala,fast_food,,,,30.9270807,74.6212736
Sharma Restaurant,restaurant,,,,30.9282818,74.6221186
BP,fuel,,,,16.6526006,74.2713314
Sector 15 Metro parking,parking,,,,28.58531,77.31076
U D Residency,restaurant,,,,12.9363255,77.5767626
Kinghorn,fast_food,,,,17.4171166,78.5437573
HP,fuel,,,,19.1955609,72.846998
Ganesh Petrol Bunk,fuel,,,,12.3128495,76.6474754
Vijaya Petrol Bunk,fuel,,,,12.3124681,76.647261
KFC,fast_food,,,,12.9578153,77.7158152
Sweet Nirvana,restaurant,,,,17.4363967,78.3972659
Dharamtar Toll Naka,,,toll_booth,,18.7033501,73.0356528
Laitumkhrah Market Car Parking,parking,,,,25.5690547,91.8982631
Malki Petrol Pump,fuel,,,,25.5656962,91.8865659
Bhagini,restaurant,,,,12.9568655,77.7153884
Assam Oil Service Station,fuel,,,,25.5659429,91.8975806
Bawri Service Station,fuel,,,,25.5665028,91.8895298
Mysore Zoo Parking,parking,,,,12.3022731,76.6634958
Fire Brigade Service Station,fuel,,,,25.565506,91.8999525
sharma sweets,fast_food,,,,31.3770966,75.8225587
Chini Mini,restaurant,,,,15.3608024,75.1272151
Biryani Zone,restaurant,,,,12.9561352,77.7165979
Jade,restaurant,,,,12.9645823,77.7161206
Northeren Wave,restaurant,,,,12.9644938,77.716214
Kayal,restaurant,,,,12.9645788,77.7162279
Chillies,restaurant,,,,12.8346081,77.4013064
KIMS Canteen,restaurant,,,,15.3625668,75.1328537
Gurudatt Bhavan,restaurant,,,,15.3631664,75.1252514
New Karnataka Bhavan,restaurant,,,,15.3640716,75.1250958
Gokul,restaurant,,,,16.7030225,74.2355377
Tejas,restaurant,,,,16.7123515,74.2378089
Lucky da dhaba,restaurant,,,,12.9365445,77.6142714
Lazeej,restaurant,,,,12.9338202,77.6193658
Meghna Biryani,restaurant,,,,12.9345967,77.6162526
Zheng,restaurant,,,,12.9336119,77.6152238
Golmal Paratha,restaurant,,,,12.9338304,77.6194655
Aalishan,restaurant,,,,12.9365369,77.614409
Ping,restaurant,,,,12.9336331,77.622557
Daawat,restaurant,,,,12.9359336,77.6146718
Atithya,restaurant,,,,12.9362549,77.6145138
Tunday Kabab,restaurant,,,,12.9338227,77.6193019
Udupi Upahaara,restaurant,,,,12.9358653,77.6149483
Coorg,restaurant,,,,12.9363343,77.6151183
KC Das,restaurant,,,,12.9337973,77.6189966
Adyar Ananda Bhavan,restaurant,,,,12.9358031,77.6147343
Zingron,restaurant,,,,12.9363805,77.6151025
Beijing Bites,restaurant,,,,12.9334311,77.6217925
Lazeez Express,restaurant,,,,12.9341001,77.6164042
Ammi's Biryani,restaurant,,,,12.936529,77.6146211
Tandoor Hut,restaurant,,,,12.9338857,77.6194174
Pizzeria Vaatika,restaurant,,,,25.289353,83.0060414
Shivapur Toll Plaza,,,toll_booth,,18.3314102,73.8524008
Namaste Cafe,restaurant,,,,14.5196513,74.3183819
Indian oil,fuel,,,,28.568231,77.253059
Indian Oil,fuel,,,,30.2626652,76.0996902
Two-Wheeler Parking,parking,,,,12.9655848,77.584288
Bharat Petroleum,fuel,,,,12.2685215,76.6371599
SADGURU RESTAURANT,restaurant,,,,19.0622302,72.9007583
French Bakery and Restaurant,restaurant,,,,11.2551148,75.7730812
Super Petrol Bunk,fuel,,,,11.266895,75.7764965
Nandini,restaurant,,,,31.28291,75.6684226
Indian Oil,fuel,,,,31.2837384,75.6672792
Cabana,restaurant,,,,31.2502953,75.7292451
Royal King,restaurant,,,,31.2731394,75.6836085
KFC,fast_food,,,,31.2876892,75.6618608
Majestic,restaurant,,,,31.2899253,75.6586314
Indian Oil,fuel,,,,31.2404194,75.7482241
Indian Oil,fuel,,,,31.2917921,75.6558643
Rupa Ice Cream Parlour,fast_food,,,,28.6602853,77.2813005
Agarwal Sweet Place,restaurant,,,,28.6653614,77.2842171
Bhagwati Hotel,fast_food,,,,19.2154553,72.8294286
Pizza Hut,restaurant,,,,19.2138976,72.8407797
The Veg Treat Express,fast_food,,,,19.219819,72.841193
Domino's,fast_food,,,,19.220503,72.853142
McDonald's,fast_food,,,,19.2209927,72.8523693
Pickles,restaurant,,,,17.4412663,78.5003508
CLUB 26,restaurant,,,,28.5791401,77.3346425
Sethji's,restaurant,,,,12.9643071,77.6437722
Chakum Chukum,fast_food,,,,12.9723006,77.6392006
Baan Phad Thai,restaurant,,,,12.9698224,77.6377171
Indian Oil,fuel,,,,31.8767109,77.1511153
HP,fuel,,,,11.2769057,76.9842852
Sree Annapoorna,restaurant,,,,11.0255643,76.9424098
Luxmi Dhaba,restaurant,,,,31.4810125,76.8692671
Indian Oil,fuel,,,,30.7228442,76.7381013
Car Parking,parking,,,,30.2459461,75.8426243
The Little Chef,restaurant,,,,31.4545014,77.6540879
Indian Oil,fuel,,,,30.6986811,76.7586117
Vishal Service Station,fuel,,,,30.7057016,76.7873933
Indian Oil,fuel,,,,30.7172004,76.7756381
Indian Oil,fuel,,,,30.7187982,76.7683943
Bharat Petroleum,fuel,,,,30.7233441,76.7715732
Indian Oil,fuel,,,,30.7241887,76.7708917
Akash Bhavan Hotel,restaurant,,,,12.9060884,80.0965109
Indian Oil,fuel,,,,30.7148784,76.8062269
Bharat Petroleum,fuel,,,,30.7201313,76.8094575
Anjali Petrol Pump,fuel,,,,25.5718863,91.8767893
Citco Cafe,restaurant,,,,30.750353,76.7875199
HP,fuel,,,,30.750823,76.7903293
Bai Dur Ya,restaurant,,,,28.7035418,77.2283038
Omelet,fast_food,,,,28.6990814,77.2258264
Indian Oil,fuel,,,,30.7001145,76.8502745
Indian Oil,fuel,,,,30.6696073,76.8489855
Shivar Garden,restaurant,,,,18.5950013,73.7875593
Sri Mahadeshwara Filling Station,fuel,,,,12.932367,77.5414216
HP,fuel,,,,30.7802154,75.6502846
Olive Garden Restaurant,restaurant,,,,15.3497832,75.1412087
Khan Saheb,restaurant,,,,12.9791395,77.7512477
Domino's,fast_food,,,,12.957157,77.7386411
The Fat Chef,restaurant,,,,12.9575682,77.7409586
Bharat Petroleum,fuel,,,,30.7010958,76.8493669
Dolphin Hotel,restaurant,,,,17.449979,78.5362762
IBP Petrol,fuel,,,,17.4500685,78.5321858
Indian Oil,fuel,,,,30.783319,75.650403
Reliance,fuel,,,,9.7097049,76.6788706
Bhagini Park,restaurant,,,,12.9632258,77.7482429
Saffron Patch,restaurant,,,,12.9564558,77.7427026
Mahesh Lunch Home,restaurant,,,,19.1036656,72.826663
Mahesh Lunch Home,restaurant,,,,19.1071141,72.8843234
Visitors'Parking,parking,,,,12.959229,77.7468726
HP petrol Station,fuel,,,,17.4477504,78.5359551
Mayuri Bar And Restaurant,restaurant,,,,12.9700266,77.7497775
Shri Lakshmi Vaibhava,restaurant,,,,12.9692871,77.7496864
Tee Cee,restaurant,,,,9.8983997,76.7142738
Bharat Petroleum,fuel,,,,9.9002282,76.7123372
Rekha,restaurant,,,,9.7466191,76.7029228
Dawat Khana Restaurant,restaurant,,,,28.562363,77.2686705
Delicacy Chinese Restaurant,restaurant,,,,12.9999497,77.6229731
Indian Oil,fuel,,,,11.6830055,78.1245966
Indian Oil,fuel,,,,11.8575488,78.0741718
HP,fuel,,,,11.9479202,78.0472666
Ghar Dhaba,restaurant,,,,12.0167967,78.0891037
Bharat Petroleum,fuel,,,,12.0164268,78.0888944
Petrol Station,fuel,,,,12.289957,78.1985522
Indian Oil,fuel,,,,12.3074487,78.208859
Indian Oil,fuel,,,,12.5390404,78.2025853
HP,fuel,,,,12.5903058,78.1426594
McDonald's,fast_food,,,,12.6661716,78.0034256
A1 Plaza,restaurant,,,,12.6883882,77.9270822
Indian Oil,fuel,,,,12.7324995,77.8355419
Indian Oil,fuel,,,,12.7479437,77.8078395
Check Post,parking,,,,12.7702871,77.7873942
Bhim Sen Punjabi Dhaba,restaurant,,,,32.2368672,76.3250033
Raku's Restaurant and German Bakery,restaurant,,,,32.2452645,76.3325746
Adyar Ananda Bhavan,restaurant,,,,13.0483451,80.2061063
Multani Dhaba,restaurant,,,,30.566162,76.4581174
Satr,restaurant,,,,30.4256536,76.69949
Maan Vaishno Dhaba,restaurant,,,,30.5711397,76.4489723
Kanchar,restaurant,,,,30.433252,76.6865168
Gill Tourist Dhaba,restaurant,,,,30.5435513,76.4968859
Fauji Dhaba,restaurant,,,,30.5212416,76.5347452
Kingfisher Tourist,restaurant,,,,30.3714022,76.7985089
Oberoi,restaurant,,,,30.4202798,76.7073574
Kanwal Palce,restaurant,,,,30.4794629,76.6060147
Haveli,restaurant,,,,30.5493415,76.4874553
Kaka Dhaba,restaurant,,,,30.4935266,76.5898519
Simran Dhaba,restaurant,,,,30.4935547,76.5892903
My Village Dhaba,restaurant,,,,30.4730539,76.6177907
Midway Dhaba,restaurant,,,,30.4774004,76.6084903
Bharat Petroleum,fuel,,,,30.4200505,76.7068335
Indian Oil,fuel,,,,17.4589346,74.304428
Sai Shakti,restaurant,,,,12.999295,77.5680608
Hotel Fanoos,fast_food,,,,12.9645047,77.6065319
Indian Oil,fuel,,,,12.9420282,77.5802856
Nessna's,restaurant,,,,12.9007073,74.835334
Om Shanti,restaurant,,,,12.3085469,76.6603582
Hotel Mathus,restaurant,,,,12.9739862,80.2581256
Indian Oil,fuel,,,,12.9686473,80.2571319
Bharat Petroleum,fuel,,,,12.9672226,80.2573585
Juice Junction,fast_food,,,,12.8734371,74.8517887
Roll Cal,restaurant,,,,17.4596243,78.3659996
Indian Oil,fuel,,,,12.967692,80.2574844
Bharat Fuel Bunk,fuel,,,,12.925815,80.1106934
H P Katai Petrol Pump,fuel,,,,19.1718903,73.0828732
Alphonsa,restaurant,,,,9.7143446,76.6861532
Nicks Italian Kitchen,restaurant,,,,32.2389104,76.3250964
Bella Ciao,restaurant,,,,12.9721533,80.2648774
Bharat Petroleum,fuel,,,,12.8732734,79.747122
Maharaja Complex Multi Storey Parking,parking,,,,12.9733973,77.5781068
Swathi Deluxe,restaurant,,,,12.9766211,77.5725503
China Pearl,restaurant,,,,12.9361984,77.6214666
Rahu temple parking,parking,,,,10.9625805,79.4289219
ananda bhavan,restaurant,,,,11.2442526,78.1665038
Pizza Hut,restaurant,,,,12.934525,77.610909
Sahib Singh Sultan,restaurant,,,,12.935016,77.611357
Gramin,restaurant,,,,12.934504,77.613547
Om,restaurant,,,,12.934323,77.613299
McDonald's,fast_food,,,,12.972972,77.6213025
Nandini,restaurant,,,,12.9306133,77.5825147
My Food,restaurant,,,,15.4339427,75.6368021
HP Petrol Bunk,fuel,,,,15.4321995,75.6357401
KFC,fast_food,,,,12.9256218,77.5502249
Dal Tadka,restaurant,,,,12.9256318,77.5498709
Sri Udupi Swaadista,restaurant,,,,13.0055106,77.5787567
Rajesh Hotel,restaurant,,,,13.0046183,77.5784554
Ring View Restaurant,restaurant,,,,12.9260621,77.6760012
City Garden Daba,restaurant,,,,13.2644774,76.4503171
Petrol pump,fuel,,,,30.330782,75.8456343
Petrol Pump,fuel,,,,30.302792,75.8352185
Dhabha,restaurant,,,,30.2315259,75.9789338
Hotel Dream Land,restaurant,,,,12.9267671,77.4973876
Udupi Upahar,fast_food,,,,12.9250272,77.4986893
The Club,restaurant,,,,12.9368003,77.5169615
KFC,fast_food,,,,12.9360631,77.5177447
McDonald's,fast_food,,,,12.9360526,77.5179485
Bramhi Aahaara,fast_food,,,,12.9217044,77.5204162
Beijing Bites,restaurant,,,,12.9214078,77.5206736
HP,fuel,,,,12.9059935,77.5421849
Masala,restaurant,,,,12.9099779,77.5508753
Domino's,fast_food,,,,12.9109528,77.5516022
Adyar Ananda Bhavan,restaurant,,,,13.0797112,77.5591265
Sri Krishna Upahar,restaurant,,,,13.0775498,77.5587667
Madurai Idly shop,fast_food,,,,12.9372017,77.6244522
Bangarshettar Petrol Bunk,fuel,,,,15.4219991,75.6224494
Hotel Karavali,restaurant,,,,13.34711,74.7353449
Maharaja Restaurant,restaurant,,,,12.934295,77.6300787
Ahaar 2000,restaurant,,,,14.4661162,75.9238313
Sharada Restaurant,restaurant,,,,12.5269045,76.8836089
Car Parking,parking,,,,13.3408405,74.7480134
RHR Restaurant,restaurant,,,,10.9974403,76.9992745
Annapoorna,restaurant,,,,11.0192445,76.9534223
K R Restaurant,restaurant,,,,11.0277881,76.951033
Achi mess,restaurant,,,,11.0189624,76.9569345
All Seasons restaurant,restaurant,,,,11.0265689,76.9445302
Agarwal Sweets and Restaurant,restaurant,,,,13.041276,77.5163638
Indian Oil,fuel,,,,13.3778768,74.7409131
Domino's,fast_food,,,,13.0374605,77.5657693
Food Bay,restaurant,,,,13.0321716,77.5699911
KFC,fast_food,,,,13.0318449,77.570207
Nandhini Deluxe,restaurant,,,,13.0314371,77.5703125
Casino,restaurant,,,,13.0289717,77.5712245
Auntie Fung's,restaurant,,,,13.0290129,77.5712153
Atithi Satkaar,restaurant,,,,13.0362481,77.5747038
Fiorano Ristorante,restaurant,,,,12.9331413,77.6228508
Alta Vita,restaurant,,,,13.2009574,77.7088941
Petrol Station,fuel,,,,13.1306795,78.1286993
Namma MTR,fast_food,,,,12.9284497,77.5733648
HP Petrol Pump,fuel,,,,12.933506,77.6303939
BIET Canteen,restaurant,,,,14.4441194,75.9037076
Dragons,restaurant,,,,12.9414203,77.553445
Bharat Petroleum,fuel,,,,10.7715718,79.1162139
Shiv Sagar Signature,restaurant,,,,12.9166102,77.5914577
SLV,restaurant,,,,12.9153417,77.5948673
Food Court,fast_food,,,,12.9163528,77.5921287
McDonald's,fast_food,,,,12.9165527,77.5921175
Society Petrol Bunk,fuel,,,,15.424341,75.6364069
Shanthi Sagar,fast_food,,,,12.9231515,77.5893938
Niha Juice Center,fast_food,,,,12.9608216,77.666002
Heart Rock Cafe,restaurant,,,,26.4886223,74.5578553
Megha Restaurant,restaurant,,,,12.955452,77.697866
Grill and Hog,fast_food,,,,12.9215902,77.6512829
McDonald's,fast_food,,,,12.9354469,77.6154094
Nandhana Grand,restaurant,,,,12.9362976,77.6213531
Bharat Petroleum,fuel,,,,10.8579725,76.0363825
Indian Oil,fuel,,,,10.8638584,76.038289
Gujarathi Dhaba,restaurant,,,,10.8835151,76.0701125
Fast food,fast_food,,,,10.8888256,76.072286
Fast food,fast_food,,,,10.8888863,76.072222
Kolkata's,restaurant,,,,12.963978,77.7487116
Dim Sum,restaurant,,,,12.9422358,77.6178071
Crooscut Road paid parking,parking,,,,11.0169216,76.965624
Classic Auto Gas,fuel,,,,12.9309662,77.6004616
Shiv sagar,restaurant,,,,12.9440288,77.5727582
Adyar Anand Bhavan,restaurant,,,,12.9444313,77.5729353
Annapoorna Gowrishankar,restaurant,,,,11.0164583,76.9653103
Aryaas,restaurant,,,,11.0172955,76.9656697
Alapenos,restaurant,,,,11.01649,76.9736427
Lalitas (Veg),restaurant,,,,11.0521017,76.9458891
Perl Ayyappas (Veg),restaurant,,,,11.0456549,76.9469608
Radhika Hotel,restaurant,,,,15.4227382,75.613494
New Shanti Sagar,restaurant,,,,12.988545,77.5377868
New Sagar Fast Food,fast_food,,,,13.0042469,77.550715
Adigas,restaurant,,,,12.943764,77.6071874
Rayappas,restaurant,,,,11.0163173,76.971581
Aruljothi,restaurant,,,,10.9973601,76.9926261
Little Italy,restaurant,,,,10.9984087,76.9879637
Adaa Restaurant,restaurant,,,,12.934104,77.6164798
Willy Vanilli,restaurant,,,,12.9368528,77.6203487
Chung wah,restaurant,,,,12.9366057,77.6205137
Chandra cafe,fast_food,,,,13.099742,77.588778
Chickpet Donne Biriyani House,restaurant,,,,13.0967578,77.5840299
Gopalapatnam Petrol Bunk,fuel,,,,17.7523929,83.2179108
CornerHouse,restaurant,,,,13.0989001,77.5876488
Century,restaurant,,,,11.8010444,76.0039366
Sathyas Biriyani,restaurant,,,,12.9363015,77.6151475
Red fort restaurant,restaurant,,,,12.9360411,77.6148636
Bhojohori manna,restaurant,,,,12.9373691,77.6243143
Krishna Cafe,restaurant,,,,12.9368986,77.6198954
Imperial Hotel,restaurant,,,,12.9364077,77.6250803
heritage of Bengal,restaurant,,,,12.9373234,77.624368
Anand Sweets and Restaurant,restaurant,,,,12.9369809,77.6197694
Ocean restaurant,restaurant,,,,12.9368711,77.6248696
KFC,fast_food,,,,12.9823894,77.607536
Juice Burg Cafe,fast_food,,,,12.9168527,77.6034541
Venu Briyani shop,restaurant,,,,11.0303174,76.9513408
Arun IceCream,restaurant,,,,11.0268622,76.9504649
Aaryas,restaurant,,,,11.0266779,76.9510067
Domino's,fast_food,,,,11.026036,76.9438147
Aaryas,restaurant,,,,11.0258302,76.9064338
N.E Diner,restaurant,,,,12.9348451,77.6128809
Thanco Fresh Fruitz Ice-Creams,restaurant,,,,12.9350385,77.6130633
Mangoa Coastal cuisine,restaurant,,,,12.935577,77.6130901
Flambe,restaurant,,,,12.9371352,77.619779
Aangan restaurant,restaurant,,,,12.9365549,77.6165979
Leiden Restaurant,restaurant,,,,11.016745,76.9895644
Hot chips,restaurant,,,,10.9962112,76.9961653
Hotel Arunachala,restaurant,,,,11.0177033,76.9901759
Bon Bon,restaurant,,,,10.9974277,76.9997836
Manipal County,restaurant,,,,12.8737015,77.6420142
Naati oota,restaurant,,,,12.936869,77.6247225
Sizzlers and more,restaurant,,,,12.9368481,77.6198784
China Bowl restaurant,restaurant,,,,12.936937,77.6202003
Malabar cafe,restaurant,,,,12.9368899,77.6197711
Desi Tadka,restaurant,,,,12.9369893,77.6201144
Chinese Cottage,restaurant,,,,12.9368847,77.6246206
Chalo Punjab,restaurant,,,,12.9377944,77.6266966
Ambrosia restaurant,restaurant,,,,12.9361835,77.6258638
Kwality Walls,restaurant,,,,12.9380577,77.6261445
Bhagini Residency,restaurant,,,,13.0200035,77.7088068
Jharoka,restaurant,,,,12.9120524,77.6379776
Kottayam,restaurant,,,,12.9143549,77.6383198
McDonald's,fast_food,,,,12.9121865,77.6379811
Hotel Apoorva,restaurant,,,,14.4674713,75.9178274
Tom and Jerry,restaurant,,,,25.447563,75.6356526
Arun Hotel,restaurant,,,,11.1530108,76.9440675
Nandini Restaurant,restaurant,,,,12.9959044,77.6130336
Udupi Shanthi Sagar,restaurant,,,,12.9958364,77.6131543
Domino's,fast_food,,,,12.9973354,77.6106956
Ponnuswamy Restaurant,restaurant,,,,12.9961448,77.6112526
Al-Siddique Kabab Center,restaurant,,,,12.9931105,77.6089191
Siddique Kabab Center,restaurant,,,,12.9934162,77.608356
Komala Refreshment,restaurant,,,,12.9960742,77.6170891
Domino's,fast_food,,,,13.015204,77.6661513
Kairali Restaurant,restaurant,,,,12.9352294,77.6076048
Little Italy,restaurant,,,,12.9343755,77.6090481
Karavali Fine Dine,restaurant,,,,12.935785,77.6076261
Sultan of Spice,restaurant,,,,12.9335261,77.6152234
Gangotree,fast_food,,,,11.0054466,76.9759311
Annapoorna People's park,restaurant,,,,11.0001255,76.9712185
Tharavad,restaurant,,,,12.9062634,77.6298345
MAS,restaurant,,,,12.9258752,77.6170606
Ammis Biriyani,restaurant,,,,12.933536,77.6155026
Chung Wah Restaurant,restaurant,,,,12.9352797,77.6157628
Mama mia,restaurant,,,,12.9338001,77.619424
Boca Grande,restaurant,,,,12.9416947,77.621508
Tasty Restaurant,restaurant,,,,12.9227705,77.6142078
Shanti Sagar Hotel,fast_food,,,,12.9970293,77.5539717
Srinivasa Cool Corner,fast_food,,,,12.9383716,77.5700155
Sweet Revenge Cafe,restaurant,,,,12.9198254,77.6127816
Sri Sai Vijay Mess,restaurant,,,,12.9366298,77.6132797
Oye Amritsar,restaurant,,,,12.9364753,77.621053
Pizzeria Romano,restaurant,,,,12.9367367,77.6206239
Hotel Seetha Ram Vilas,restaurant,,,,11.3075067,76.9336116
Mast Kalandar,restaurant,,,,12.9147654,77.6383124
Canteen,fast_food,,,,12.5193943,76.8801559
Tikka,restaurant,,,,22.316684,87.3074209
Veggies,restaurant,,,,22.3176713,87.3054978
Kalida's Canteen,restaurant,,,,22.3197512,87.3151661
Kiwi kiss,restaurant,,,,12.9388779,77.61893
Indian Oil,fuel,,,,12.8853599,77.6417564
Chetana Hotel,restaurant,,,,14.4608205,75.9182768
Ice Land,restaurant,,,,14.4609815,75.9186579
Swathi,restaurant,,,,14.4637787,75.9176786
Hotel Panchami,restaurant,,,,14.4608309,75.9187086
Malabar inn,restaurant,,,,12.9677987,77.654435
Kanti Sweets,restaurant,,,,13.098633,77.5773144
Swathi garden,restaurant,,,,13.0591093,77.5931284
Paratha plaza,restaurant,,,,13.027249,77.5798112
Ande ka funda,restaurant,,,,12.9332663,77.6153051
Domino's,fast_food,,,,13.0995328,77.5890285
Idli Express,fast_food,,,,13.0950433,77.5942125
Sarovaram,restaurant,,,,9.9491504,76.3172271
HP Petrol Bunk,fuel,,,,11.0217902,76.9523462
BP Petrol Bunk,fuel,,,,11.0216235,76.9524414
Kaggis' Bakery,fast_food,,,,12.9090588,77.5492656
North Karanataka mess,fast_food,,,,12.9094097,77.5499084
Nandhini,restaurant,,,,12.9253564,77.5496136
Pizza Hut,restaurant,,,,12.9251321,77.5507224
Hotel Vishwa,restaurant,,,,15.4255375,75.6363229
Ruchi Gardens,restaurant,,,,15.4248653,75.6355075
Indian Oil,fuel,,,,9.9379014,76.3184301
India Oil,fuel,,,,9.9431297,76.3186199
Gangasagar Chats,fast_food,,,,12.9872341,77.549974
Annapoorna Gowrishankar,restaurant,,,,11.0144639,76.9674538
Bharat Petroleum,fuel,,,,12.9090166,77.6280806
Peking,restaurant,,,,11.0095746,76.9501279
SUGAM HOTELS,restaurant,,,,11.0077385,76.9512534
ANANDHAS,restaurant,,,,11.0085515,76.9512706
New Shanti Sagar,restaurant,,,,12.9314867,77.5761365
New Indraprastha - Hotel Restaurant,restaurant,,,,16.1742762,75.6596524
Maharaja,restaurant,,,,16.1742658,75.6658456
HOTCHIPS,fast_food,,,,11.0068225,76.9511475
ANNAPOORNA,restaurant,,,,11.0069705,76.9516839
A1 CHIPS,fast_food,,,,11.0065592,76.9512011
AARYAS,restaurant,,,,11.0058963,76.9509109
Pizza Hut,restaurant,,,,11.0033266,76.951383
THAT'S Y FOOD,restaurant,,,,11.0105303,76.9533949
COCKARACO,restaurant,,,,11.0106881,76.9544601
Cane Crush,restaurant,,,,13.0039772,77.5509235
Raham's Families International (Richies) Restaurant,restaurant,,,,12.9603151,77.6458853
Thaff Restaurant,restaurant,,,,9.4916909,76.338702
Indian Coffee House,restaurant,,,,9.4903941,76.3380799
Hotel Prabha International,restaurant,,,,13.0271417,77.5438625
Sanjay Food Junction,restaurant,,,,13.0577696,77.5950588
Raiban Hotel,restaurant,,,,9.4912601,76.337353
Hotel Sinchana,restaurant,,,,13.0201794,77.6745195
pateeswaram temple parking,parking,,,,10.9255103,79.3449134
Venkataramana Hotel,restaurant,,,,10.9612309,79.377963
HP Petrol Bunk,fuel,,,,11.3005048,76.9411625
BP Gas Station,fuel,,,,11.2905967,76.9584305
SLV Swagath,fast_food,,,,12.9284223,77.589782
Cube Multi-cuisine Restaurant,restaurant,,,,12.938682,77.6299136
Polynation,restaurant,,,,12.9375545,77.6281177
Taste of Bihar,restaurant,,,,12.9376735,77.6264373
Barbeque Nation,restaurant,,,,12.9519422,77.6397478
Tandoori Hipple,restaurant,,,,12.9526958,77.640104
LoveShack,restaurant,,,,12.9525546,77.6400289
Green View Service Station,fuel,,,,23.7962006,86.4326527
HOTEL CHERAN,restaurant,,,,11.010077,76.9496225
AGARWAL SWEET PALACE,fast_food,,,,11.0102349,76.9489787
Indian Oil,fuel,,,,11.0094398,76.9441479
RICH FOODS,restaurant,,,,11.0149793,76.9499121
Damro,fast_food,,,,11.0129415,76.9501213
BOOMERANG,fast_food,,,,11.0121253,76.9496546
Shanti Sagara,restaurant,,,,12.9287808,77.5856675
Pizza Hut,restaurant,,,,12.9244542,77.5643439
Mini Punjabi Dhaba,restaurant,,,,12.9403137,77.5645095
Ganesh FruitJuice Centre,restaurant,,,,12.9393831,77.5641393
Bull Temple Filling Station,fuel,,,,12.9462008,77.5679859
Cane-o-La,restaurant,,,,12.9449194,77.5680581
SLV Delite,restaurant,,,,12.9480672,77.5682863
Mane Thindi,fast_food,,,,12.9233352,77.5545915
Chung wah,restaurant,,,,12.9251478,77.5507385
McDonald's,fast_food,,,,12.9733561,77.6074951
Ruby Tuesday,restaurant,,,,12.9746853,77.605772
Purple Haze,restaurant,,,,12.9729633,77.6086054
Paris Panini,restaurant,,,,12.9747565,77.6051367
Gadag Mirchi Bhaggi Stall,fast_food,,,,15.4316458,75.6334795
Nandini Andra Style,restaurant,,,,12.9317341,77.6228586
Petrol Bunk,fuel,,,,14.4507733,79.9892749
Rappai's Fast food,fast_food,,,,10.0022843,76.3056488
Chic King,restaurant,,,,10.0034835,76.3085617
Arabian Grill,restaurant,,,,10.0041069,76.3091517
Chopstick Thai,restaurant,,,,10.0041439,76.3101656
Luciya's Food court,restaurant,,,,10.0043129,76.3107128
Golden Fork,restaurant,,,,10.0049729,76.3137921
Petrol Bunk,fuel,,,,14.4527464,79.9841474
Chetana Canteen,restaurant,,,,15.4321733,75.6439777
Hamsa Sagar,restaurant,,,,13.00091,77.5412684
Polar Bear,restaurant,,,,12.9276361,77.5779238
Gelato Italiano,restaurant,,,,12.9278474,77.5782069
Sukh Sagar,restaurant,,,,12.9285276,77.5826445
Basaveshwar Khanavali,restaurant,,,,12.9288447,77.5857791
1947,restaurant,,,,12.9277143,77.5861502
McDonald's,fast_food,,,,12.9279957,77.5861533
Ohris,restaurant,,,,12.922039,77.620302
Silver Metro,restaurant,,,,12.921876,77.620493
Pizza Hut,restaurant,,,,12.9954523,77.6138486
KFC,fast_food,,,,12.9978917,77.6147471
Beijing Bites,restaurant,,,,12.9973063,77.6138674
McDonald's,fast_food,,,,12.9963445,77.6157181
Ganesha Fruit Juice Center,fast_food,,,,12.9954036,77.6139103
Empire,restaurant,,,,12.9999459,77.6158737
Hotel Raghavendra,restaurant,,,,9.95338,76.3408782
Kobe Sizzler,restaurant,,,,12.978234,77.6426096
Cafe Sangam @ Maiyas,fast_food,,,,12.9425192,77.5854098
Subz,restaurant,,,,12.9329962,77.5850947
Vasudev Adigas,fast_food,,,,12.9306365,77.5862902
Beijing Bites,restaurant,,,,12.9243848,77.5858198
Cool joint,fast_food,,,,12.9287644,77.5858624
Durga Vihar Boarding and lodging,restaurant,,,,16.1818902,75.6979889
Krishna Bhavan,restaurant,,,,13.333019,74.7476617
KR Bakes,restaurant,,,,9.9671019,76.3185749
Cool Joint,restaurant,,,,12.9825453,77.6104302
Parivaar Sweets,fast_food,,,,13.3417144,74.7491947
Hotel Paradise,restaurant,,,,10.0285196,76.3099997
Bosch (DH) Parking,parking,,,,12.9366224,77.6134497
Olio,restaurant,,,,12.9365507,77.6204895
Jyothi Bakery,fast_food,,,,11.0784165,77.0037211
AR Bakes,fast_food,,,,11.0786745,77.0033617
McDonald's,fast_food,,,,12.9215958,77.6202694
Four Seasons,restaurant,,,,11.0757923,77.0023866
Kota Kachori,restaurant,,,,12.9346333,77.6124687
Guru Amudhas,restaurant,,,,11.0738286,77.0017777
Ragam Bakery,fast_food,,,,11.0654053,77.0003213
Seapark,restaurant,,,,10.0492075,76.3187269
Hotel Aryaas,restaurant,,,,11.0686667,77.0023034
Bharat Petroleum,fuel,,,,13.3420732,74.7475447
Indian Oil,fuel,,,,13.3440612,74.7501492
Bharat Petroleum Retail Outlet,fuel,,,,11.0530119,76.9939054
Bharat Petroleum,fuel,,,,11.0519614,76.9924402
Indian Oil,fuel,,,,11.0517919,76.992171
Railway Station Parking,parking,,,,10.9952612,76.9667107
Shiva Sagar,restaurant,,,,12.9339607,77.6104356
Kataria Home Food,restaurant,,,,12.9164249,77.6164112
Shanti Sagar,restaurant,,,,12.9256315,77.6152769
Aswini Hotel,restaurant,,,,12.9229035,77.6134614
Andra Curry Point,restaurant,,,,12.9231702,77.6126406
RHR restaurant,restaurant,,,,10.9975037,76.9680636
Tiffin center,fast_food,,,,10.9950603,76.9688334
C S Meals,fast_food,,,,10.9996522,76.9681095
Bon bon ice creams,restaurant,,,,10.9988726,76.968206
Sri Sairam Tiffins & Meals,restaurant,,,,17.7358516,83.3211329
Guru Hotel,restaurant,,,,10.9941795,76.9634175
Annapoorna,restaurant,,,,10.9938098,76.963401
Jade Empress,restaurant,,,,12.9459429,77.5956857
Keys Hotel,restaurant,,,,12.9459575,77.5951685
Bhagini Hotel,restaurant,,,,12.9494002,77.5926204
Valar Chicken,restaurant,,,,10.9966817,77.0021341
My Place Restaurant,restaurant,,,,11.0116134,76.9860827
Anandhaas,restaurant,,,,11.0123899,76.9863269
Golden Pepper,restaurant,,,,9.9768007,76.2771053
Ela,restaurant,,,,9.9773374,76.2775118
METRO PARK-INN,restaurant,,,,10.9941611,76.9635454
SFB Cooldrink House,fast_food,,,,15.4265329,75.6276483
Kamath Restaurant,restaurant,,,,15.4310576,75.631693
Parvati Petroleums,fuel,,,,15.4114636,75.618105
Domino's,fast_food,,,,12.9231276,77.5860269
ANNAPOORNA,restaurant,,,,10.9950414,76.9575938
Punjabi Rasoi,restaurant,,,,13.0256971,77.5931352
Tiffin Centre,restaurant,,,,13.0249236,77.5927811
Adigas,restaurant,,,,12.921875,77.620121
New Shanti Sagar,restaurant,,,,13.0233034,77.5928133
Swati Deluxe,restaurant,,,,12.997825,77.5499844
