{"clusters": [{"id": 1, "centroid_lat": 18.735051794708244, "centroid_lon": 73.06339429435387, "event_count": 4233, "distinct_trips": 3898, "distinct_routes": 155, "classification": "other_legit", "poi_name": "Dharamtar Toll Naka", "poi_type": "Unidentified", "poi_distance_m": 447.6, "peak_hour": 12, "night_halt_pct": 29.1}, {"id": 2, "centroid_lat": 19.768050665905633, "centroid_lon": 72.89560037519026, "event_count": 2628, "distinct_trips": 1725, "distinct_routes": 22, "classification": "other_legit", "poi_name": "Unnamed fuel", "poi_type": "Unidentified", "poi_distance_m": 654.9, "peak_hour": 11, "night_halt_pct": 28.3}, {"id": 3, "centroid_lat": 15.201620264138816, "centroid_lon": 76.6476753748929, "event_count": 2334, "distinct_trips": 2185, "distinct_routes": 175, "classification": "other_legit", "poi_name": "Toranagallu Byepass Cabin", "poi_type": "Unidentified", "poi_distance_m": 731.8, "peak_hour": 15, "night_halt_pct": 22.3}, {"id": 4, "centroid_lat": 18.947699619696177, "centroid_lon": 73.14212110686223, "event_count": 1909, "distinct_trips": 1223, "distinct_routes": 66, "classification": "other_legit", "poi_name": "Unnamed gate", "poi_type": "gate", "poi_distance_m": 219.2, "peak_hour": 1, "night_halt_pct": 31.4}, {"id": 5, "centroid_lat": 19.049775196487378, "centroid_lon": 73.10570782875959, "event_count": 1822, "distinct_trips": 1266, "distinct_routes": 91, "classification": "known_functional", "poi_name": "Unnamed gate", "poi_type": "gate", "poi_distance_m": 138.7, "peak_hour": 19, "night_halt_pct": 28.7}, {"id": 6, "centroid_lat": 19.366183515815084, "centroid_lon": 73.1796428515815, "event_count": 1233, "distinct_trips": 790, "distinct_routes": 14, "classification": "other_legit", "poi_name": "Unnamed gate", "poi_type": "restaurant", "poi_distance_m": 168.5, "peak_hour": 7, "night_halt_pct": 34.4}, {"id": 7, "centroid_lat": 11.839665841150444, "centroid_lon": 77.93747182035398, "event_count": 1130, "distinct_trips": 1015, "distinct_routes": 49, "classification": "other_legit", "poi_name": "JSW", "poi_type": "Unidentified", "poi_distance_m": 278.3, "peak_hour": 19, "night_halt_pct": 49.0}, {"id": 8, "centroid_lat": 18.980701999999997, "centroid_lon": 72.84894834203655, "event_count": 766, "distinct_trips": 518, "distinct_routes": 4, "classification": "other_legit", "poi_name": "Unnamed traffic_signals", "poi_type": "Unidentified", "poi_distance_m": 133.2, "peak_hour": 11, "night_halt_pct": 27.0}, {"id": 9, "centroid_lat": 18.797389170247936, "centroid_lon": 73.28670227107439, "event_count": 605, "distinct_trips": 467, "distinct_routes": 60, "classification": "other_legit", "poi_name": "Khalapur Toll Plaza", "poi_type": "toll_booth", "poi_distance_m": 156.8, "peak_hour": 19, "night_halt_pct": 30.1}, {"id": 10, "centroid_lat": 18.749908765410957, "centroid_lon": 73.61174928253425, "event_count": 584, "distinct_trips": 509, "distinct_routes": 34, "classification": "known_functional", "poi_name": "Unnamed gate", "poi_type": "fuel", "poi_distance_m": 210.4, "peak_hour": 19, "night_halt_pct": 26.0}, {"id": 11, "centroid_lat": 13.3427598046875, "centroid_lon": 77.12694809598214, "event_count": 448, "distinct_trips": 441, "distinct_routes": 21, "classification": "other_legit", "poi_name": "Hemadri First Grade College", "poi_type": "college", "poi_distance_m": 275.6, "peak_hour": 11, "night_halt_pct": 19.6}, {"id": 12, "centroid_lat": 20.835912468553456, "centroid_lon": 73.06680433962265, "event_count": 318, "distinct_trips": 272, "distinct_routes": 12, "classification": "other_legit", "poi_name": "Unnamed gate", "poi_type": "Unidentified", "poi_distance_m": 504.6, "peak_hour": 12, "night_halt_pct": 28.0}, {"id": 13, "centroid_lat": 20.909827737451735, "centroid_lon": 73.02328733590733, "event_count": 259, "distinct_trips": 169, "distinct_routes": 10, "classification": "other_legit", "poi_name": "Unnamed gate", "poi_type": "gate", "poi_distance_m": 454.0, "peak_hour": 11, "night_halt_pct": 18.5}, {"id": 14, "centroid_lat": 11.952274143203883, "centroid_lon": 78.0500933446602, "event_count": 206, "distinct_trips": 198, "distinct_routes": 30, "classification": "other_legit", "poi_name": "Unnamed bus_stop", "poi_type": "bus_stop", "poi_distance_m": 308.8, "peak_hour": 18, "night_halt_pct": 50.5}, {"id": 15, "centroid_lat": 20.21339319689119, "centroid_lon": 72.8847245492228, "event_count": 193, "distinct_trips": 165, "distinct_routes": 9, "classification": "other_legit", "poi_name": "Achhad Fata", "poi_type": "Unidentified", "poi_distance_m": 392.4, "peak_hour": 11, "night_halt_pct": 23.3}, {"id": 16, "centroid_lat": 12.009596348958333, "centroid_lon": 78.083184859375, "event_count": 192, "distinct_trips": 190, "distinct_routes": 28, "classification": "other_legit", "poi_name": "Unnamed bus_stop", "poi_type": "bus_stop", "poi_distance_m": 253.6, "peak_hour": 20, "night_halt_pct": 47.4}, {"id": 17, "centroid_lat": 19.2021317679558, "centroid_lon": 73.01991154696132, "event_count": 181, "distinct_trips": 146, "distinct_routes": 8, "classification": "other_legit", "poi_name": "Retibunder Number 1", "poi_type": "bus_stop", "poi_distance_m": 177.5, "peak_hour": 2, "night_halt_pct": 41.4}, {"id": 18, "centroid_lat": 17.88964624858757, "centroid_lon": 78.46689172881356, "event_count": 177, "distinct_trips": 166, "distinct_routes": 2, "classification": "other_legit", "poi_name": "Masaipet", "poi_type": "Unidentified", "poi_distance_m": 588.3, "peak_hour": 12, "night_halt_pct": 13.0}, {"id": 19, "centroid_lat": 21.140908405714285, "centroid_lon": 79.20085333142856, "event_count": 175, "distinct_trips": 135, "distinct_routes": 22, "classification": "other_legit", "poi_name": "Kapsi Khurd", "poi_type": "Unidentified", "poi_distance_m": 1097.7, "peak_hour": 15, "night_halt_pct": 20.6}, {"id": 20, "centroid_lat": 21.978988478527608, "centroid_lon": 75.30034088957055, "event_count": 163, "distinct_trips": 141, "distinct_routes": 15, "classification": "other_legit", "poi_name": "Unnamed crossing", "poi_type": "crossing", "poi_distance_m": 502.8, "peak_hour": 20, "night_halt_pct": 51.5}]}