name,latitude,longitude,radius_m,severity
"Bhiwandi bypass — historical pilferage corridor",19.3,73.06,1500,high
"Ghaziabad–Bulandshahr stretch",28.67,77.38,2000,high
"Noida–Greater Noida link road",28.45,77.51,1500,medium
"Outer Hyderabad — Shadnagar belt",17.08,78.18,2500,high
"Bangalore — Hosur road truck halts",12.77,77.7,2000,medium
"Mumbai — Vasai–Virar corridor",19.38,72.88,2000,high
"Delhi NH-44 northbound shoulder",28.84,77.11,1800,medium
"Chennai — Sriperumbudur industrial belt",12.97,79.94,2200,medium
