{"verdicts":[{"verdict_id":"V-001","type":"driver_vehicle_location","type_label":"Driver-vehicle recurrence","risk_score":90,"score_breakdown":{"frequency":25,"poi_absence":20,"duration":15,"night_share":15,"reefer":10,"cargo_value":0,"transparency":0,"escalation":5},"headline":"PRATHMESH (8378085006) + MH04LE3023 \u2014 11 night halts at Waghmare Vasti area","entities":{"driver_name":"PRATHMESH","driver_number":"8378085006","vehicle_number":"MH04LE3023","vehicle_type":"REEFER_8FT_TRUCK","transporter_branch":"TRUSTECH-ZEPTO"},"location":{"cluster_id":"18.62100,74.06400","lat":18.6206,"lng":74.0653,"nearest_poi_name":"Waghmare Vasti","nearest_poi_type":"unknown","nearest_poi_category":"unknown","distance_to_poi_km":1.2222,"label":"Waghmare Vasti area"},"stats":{"count":11,"median_duration_hrs":16.683333333333334,"night_share":1.0,"reefer_share":1.0},"evidence":[{"trip_id":"54444248","ts":"2026-04-08 03:01","duration_hrs":10.62,"lat":18.6219,"lng":74.0651,"net_weight":10.6,"escalation":3,"distance_to_poi_km":1.109,"nearest_poi_name":"Perane"},{"trip_id":"55299871","ts":"2026-04-27 23:56","duration_hrs":18.25,"lat":18.6209,"lng":74.0653,"net_weight":551.1,"escalation":3,"distance_to_poi_km":1.222,"nearest_poi_name":"Perane"},{"trip_id":"55340808","ts":"2026-04-27 23:56","duration_hrs":18.25,"lat":18.6209,"lng":74.0653,"net_weight":748.7,"escalation":3,"distance_to_poi_km":1.222,"nearest_poi_name":"Perane"},{"trip_id":"55299868","ts":"2026-04-27 23:56","duration_hrs":18.25,"lat":18.6209,"lng":74.0653,"net_weight":551.1,"escalation":3,"distance_to_poi_km":1.222,"nearest_poi_name":"Perane"},{"trip_id":"55438703","ts":"2026-04-30 00:36","duration_hrs":10.18,"lat":18.6197,"lng":74.0653,"net_weight":655.6,"escalation":3,"distance_to_poi_km":1.185,"nearest_poi_name":"Waghmare Vasti"},{"trip_id":"55505310","ts":"2026-05-02 01:36","duration_hrs":11.43,"lat":18.6206,"lng":74.0653,"net_weight":577.6,"escalation":3,"distance_to_poi_km":1.225,"nearest_poi_name":"Waghmare Vasti"},{"trip_id":"55505300","ts":"2026-05-02 01:36","duration_hrs":11.43,"lat":18.6206,"lng":74.0653,"net_weight":577.6,"escalation":3,"distance_to_poi_km":1.225,"nearest_poi_name":"Waghmare Vasti"},{"trip_id":"55505305","ts":"2026-05-02 01:36","duration_hrs":11.43,"lat":18.6206,"lng":74.0653,"net_weight":577.6,"escalation":3,"distance_to_poi_km":1.225,"nearest_poi_name":"Waghmare Vasti"},{"trip_id":"55935114","ts":"2026-05-11 23:47","duration_hrs":16.68,"lat":18.62,"lng":74.0653,"net_weight":106.4,"escalation":3,"distance_to_poi_km":1.198,"nearest_poi_name":"Waghmare Vasti"},{"trip_id":"55949873","ts":"2026-05-11 23:47","duration_hrs":16.68,"lat":18.62,"lng":74.0653,"net_weight":307.9,"escalation":3,"distance_to_poi_km":1.198,"nearest_poi_name":"Waghmare Vasti"}],"narrative":"Same driver-vehicle has stopped 11 times at this exact location. Median halt is 16.7 hours. 100% of stops fall between 22:00 and 04:00. Closest POI is Waghmare Vasti (unknown) at 1.22 km \u2014 does not plausibly explain the halt.","estimated_exposure_inr":14549,"recommended_action":"Pull FASTag transit logs and weighbridge in/out for these 11 trip_ids. Brief TRUSTECH-ZEPTO branch ops on driver PRATHMESH's detour pattern."},{"verdict_id":"V-002","type":"driver_vehicle_location","type_label":"Driver-vehicle recurrence","risk_score":90,"score_breakdown":{"frequency":25,"poi_absence":20,"duration":15,"night_share":15,"reefer":10,"cargo_value":0,"transparency":0,"escalation":5},"headline":"Madhu (9148195357) + KA52C4324 \u2014 10 night halts at Doddamavatturu area","entities":{"driver_name":"Madhu","driver_number":"9148195357","vehicle_number":"KA52C4324","vehicle_type":"REEFER_10FT_TRUCK","transporter_branch":"Southcold"},"location":{"cluster_id":"12.90900,77.03400","lat":12.909957,"lng":77.03539,"nearest_poi_name":"Doddamavatturu","nearest_poi_type":"unknown","nearest_poi_category":"unknown","distance_to_poi_km":1.3694,"label":"Doddamavatturu area"},"stats":{"count":10,"median_duration_hrs":2.7666666666666666,"night_share":1.0,"reefer_share":1.0},"evidence":[{"trip_id":"55603299","ts":"2026-05-03 23:05","duration_hrs":2.77,"lat":12.90996,"lng":77.03539,"net_weight":859.6,"escalation":3,"distance_to_poi_km":1.369,"nearest_poi_name":"Doddamavatturu"},{"trip_id":"55603307","ts":"2026-05-03 23:05","duration_hrs":2.77,"lat":12.90996,"lng":77.03539,"net_weight":859.6,"escalation":3,"distance_to_poi_km":1.369,"nearest_poi_name":"Doddamavatturu"},{"trip_id":"55603277","ts":"2026-05-03 23:05","duration_hrs":2.77,"lat":12.90996,"lng":77.03539,"net_weight":859.6,"escalation":3,"distance_to_poi_km":1.369,"nearest_poi_name":"Doddamavatturu"},{"trip_id":"55603300","ts":"2026-05-03 23:05","duration_hrs":2.77,"lat":12.90996,"lng":77.03539,"net_weight":859.6,"escalation":3,"distance_to_poi_km":1.369,"nearest_poi_name":"Doddamavatturu"},{"trip_id":"55603296","ts":"2026-05-03 23:05","duration_hrs":2.77,"lat":12.90996,"lng":77.03539,"net_weight":859.6,"escalation":3,"distance_to_poi_km":1.369,"nearest_poi_name":"Doddamavatturu"},{"trip_id":"55603286","ts":"2026-05-03 23:05","duration_hrs":2.77,"lat":12.90996,"lng":77.03539,"net_weight":859.6,"escalation":3,"distance_to_poi_km":1.369,"nearest_poi_name":"Doddamavatturu"},{"trip_id":"55603306","ts":"2026-05-03 23:05","duration_hrs":2.77,"lat":12.90996,"lng":77.03539,"net_weight":859.6,"escalation":3,"distance_to_poi_km":1.369,"nearest_poi_name":"Doddamavatturu"},{"trip_id":"55603303","ts":"2026-05-03 23:05","duration_hrs":2.77,"lat":12.90996,"lng":77.03539,"net_weight":859.6,"escalation":3,"distance_to_poi_km":1.369,"nearest_poi_name":"Doddamavatturu"},{"trip_id":"55603305","ts":"2026-05-03 23:05","duration_hrs":2.77,"lat":12.90996,"lng":77.03539,"net_weight":859.6,"escalation":3,"distance_to_poi_km":1.369,"nearest_poi_name":"Doddamavatturu"},{"trip_id":"55603295","ts":"2026-05-03 23:05","duration_hrs":2.77,"lat":12.90996,"lng":77.03539,"net_weight":859.6,"escalation":3,"distance_to_poi_km":1.369,"nearest_poi_name":"Doddamavatturu"}],"narrative":"Same driver-vehicle has stopped 10 times at this exact location. Median halt is 2.8 hours. 100% of stops fall between 22:00 and 04:00. Closest POI is Doddamavatturu (unknown) at 1.37 km \u2014 does not plausibly explain the halt.","estimated_exposure_inr":20629,"recommended_action":"Pull FASTag transit logs and weighbridge in/out for these 10 trip_ids. Brief Southcold branch ops on driver Madhu's detour pattern."},{"verdict_id":"V-003","type":"driver_vehicle_location","type_label":"Driver-vehicle recurrence","risk_score":90,"score_breakdown":{"frequency":25,"poi_absence":20,"duration":15,"night_share":15,"reefer":10,"cargo_value":0,"transparency":0,"escalation":5},"headline":"Ajeet (9784725451) + RJ14GT2179 \u2014 13 night halts at Hoshang\u0101b\u0101d area","entities":{"driver_name":"Ajeet","driver_number":"9784725451","vehicle_number":"RJ14GT2179","vehicle_type":"REEFER_8FT_TRUCK","transporter_branch":"SHREE OM SURFACE CHAIN LOGISTICS-Zepto"},"location":{"cluster_id":"22.65000,77.76600","lat":22.649941499999997,"lng":77.76584249999999,"nearest_poi_name":"Hoshang\u0101b\u0101d","nearest_poi_type":"unknown","nearest_poi_category":"unknown","distance_to_poi_km":1.5321,"label":"Hoshang\u0101b\u0101d area"},"stats":{"count":13,"median_duration_hrs":15.35,"night_share":1.0,"reefer_share":1.0},"evidence":[{"trip_id":"54202988","ts":"2026-04-01 03:40","duration_hrs":2.35,"lat":22.65046,"lng":77.76561,"net_weight":null,"escalation":3,"distance_to_poi_km":1.507,"nearest_poi_name":"Hoshang\u0101b\u0101d"},{"trip_id":"54202610","ts":"2026-04-01 03:40","duration_hrs":2.35,"lat":22.65046,"lng":77.76561,"net_weight":561.0,"escalation":3,"distance_to_poi_km":1.507,"nearest_poi_name":"Hoshang\u0101b\u0101d"},{"trip_id":"54202607","ts":"2026-04-01 03:40","duration_hrs":2.35,"lat":22.65046,"lng":77.76561,"net_weight":561.0,"escalation":3,"distance_to_poi_km":1.507,"nearest_poi_name":"Hoshang\u0101b\u0101d"},{"trip_id":"54153561","ts":"2026-04-01 03:40","duration_hrs":2.35,"lat":22.65046,"lng":77.76561,"net_weight":523.0,"escalation":3,"distance_to_poi_km":1.507,"nearest_poi_name":"Hoshang\u0101b\u0101d"},{"trip_id":"54153765","ts":"2026-04-01 03:40","duration_hrs":2.35,"lat":22.65046,"lng":77.76561,"net_weight":523.0,"escalation":3,"distance_to_poi_km":1.507,"nearest_poi_name":"Hoshang\u0101b\u0101d"},{"trip_id":"54436260","ts":"2026-04-07 02:14","duration_hrs":15.8,"lat":22.64943,"lng":77.76608,"net_weight":470.0,"escalation":3,"distance_to_poi_km":1.558,"nearest_poi_name":"Hoshang\u0101b\u0101d"},{"trip_id":"54436358","ts":"2026-04-07 02:14","duration_hrs":15.8,"lat":22.64943,"lng":77.76608,"net_weight":470.0,"escalation":3,"distance_to_poi_km":1.558,"nearest_poi_name":"Hoshang\u0101b\u0101d"},{"trip_id":"54393293","ts":"2026-04-07 02:14","duration_hrs":15.8,"lat":22.64943,"lng":77.76608,"net_weight":560.8,"escalation":3,"distance_to_poi_km":1.558,"nearest_poi_name":"Hoshang\u0101b\u0101d"},{"trip_id":"54393393","ts":"2026-04-07 02:14","duration_hrs":15.8,"lat":22.64943,"lng":77.76608,"net_weight":560.8,"escalation":3,"distance_to_poi_km":1.558,"nearest_poi_name":"Hoshang\u0101b\u0101d"},{"trip_id":"54567255","ts":"2026-04-10 22:14","duration_hrs":15.35,"lat":22.65119,"lng":77.76527,"net_weight":383.4,"escalation":3,"distance_to_poi_km":1.475,"nearest_poi_name":"Hoshang\u0101b\u0101d"}],"narrative":"Same driver-vehicle has stopped 13 times at this exact location. Median halt is 15.3 hours. 100% of stops fall between 22:00 and 04:00. Closest POI is Hoshang\u0101b\u0101d (unknown) at 1.53 km \u2014 does not plausibly explain the halt.","estimated_exposure_inr":15490,"recommended_action":"Pull FASTag transit logs and weighbridge in/out for these 13 trip_ids. Brief SHREE OM SURFACE CHAIN LOGISTICS-Zepto branch ops on driver Ajeet's detour pattern."},{"verdict_id":"V-004","type":"driver_vehicle_location","type_label":"Driver-vehicle recurrence","risk_score":90,"score_breakdown":{"frequency":25,"poi_absence":20,"duration":15,"night_share":15,"reefer":10,"cargo_value":0,"transparency":0,"escalation":5},"headline":"Akhilesh (9792705684) + MH05FJ9474 \u2014 10 night halts at Sevalia area","entities":{"driver_name":"Akhilesh","driver_number":"9792705684","vehicle_number":"MH05FJ9474","vehicle_type":"REEFER_14FT_TRUCK","transporter_branch":"TRUSTECH-ZEPTO"},"location":{"cluster_id":"22.80900,73.40100","lat":22.8083,"lng":73.4019,"nearest_poi_name":"Sevalia","nearest_poi_type":"unknown","nearest_poi_category":"unknown","distance_to_poi_km":1.1105,"label":"Sevalia area"},"stats":{"count":10,"median_duration_hrs":5.308333333333334,"night_share":1.0,"reefer_share":1.0},"evidence":[{"trip_id":"54429056","ts":"2026-04-06 22:42","duration_hrs":9.43,"lat":22.808,"lng":73.4022,"net_weight":380.9,"escalation":3,"distance_to_poi_km":1.134,"nearest_poi_name":"Sevalia"},{"trip_id":"54429169","ts":"2026-04-06 22:42","duration_hrs":9.43,"lat":22.808,"lng":73.4022,"net_weight":380.9,"escalation":3,"distance_to_poi_km":1.134,"nearest_poi_name":"Sevalia"},{"trip_id":"54427882","ts":"2026-04-06 22:42","duration_hrs":9.43,"lat":22.808,"lng":73.4022,"net_weight":380.9,"escalation":3,"distance_to_poi_km":1.134,"nearest_poi_name":"Sevalia"},{"trip_id":"54429905","ts":"2026-04-06 22:42","duration_hrs":9.43,"lat":22.808,"lng":73.4022,"net_weight":380.9,"escalation":3,"distance_to_poi_km":1.134,"nearest_poi_name":"Sevalia"},{"trip_id":"54429167","ts":"2026-04-06 22:42","duration_hrs":9.43,"lat":22.808,"lng":73.4022,"net_weight":380.9,"escalation":3,"distance_to_poi_km":1.134,"nearest_poi_name":"Sevalia"},{"trip_id":"54590435","ts":"2026-04-10 23:07","duration_hrs":1.18,"lat":22.8086,"lng":73.4016,"net_weight":null,"escalation":2,"distance_to_poi_km":1.087,"nearest_poi_name":"Sevalia"},{"trip_id":"54623376","ts":"2026-04-10 23:07","duration_hrs":1.18,"lat":22.8086,"lng":73.4016,"net_weight":2604.1,"escalation":2,"distance_to_poi_km":1.087,"nearest_poi_name":"Sevalia"},{"trip_id":"54623377","ts":"2026-04-10 23:07","duration_hrs":1.18,"lat":22.8086,"lng":73.4016,"net_weight":2604.1,"escalation":2,"distance_to_poi_km":1.087,"nearest_poi_name":"Sevalia"},{"trip_id":"54623395","ts":"2026-04-10 23:07","duration_hrs":1.18,"lat":22.8086,"lng":73.4016,"net_weight":2604.1,"escalation":2,"distance_to_poi_km":1.087,"nearest_poi_name":"Sevalia"},{"trip_id":"54623374","ts":"2026-04-10 23:07","duration_hrs":1.18,"lat":22.8086,"lng":73.4016,"net_weight":2604.1,"escalation":2,"distance_to_poi_km":1.087,"nearest_poi_name":"Sevalia"}],"narrative":"Same driver-vehicle has stopped 10 times at this exact location. Median halt is 5.3 hours. 100% of stops fall between 22:00 and 04:00. Closest POI is Sevalia (unknown) at 1.11 km \u2014 does not plausibly explain the halt.","estimated_exposure_inr":9142,"recommended_action":"Pull FASTag transit logs and weighbridge in/out for these 10 trip_ids. Brief TRUSTECH-ZEPTO branch ops on driver Akhilesh's detour pattern."},{"type":"vehicle_location","type_label":"Vehicle-level recurrence","risk_score":90,"score_breakdown":{"frequency":25,"poi_absence":20,"duration":15,"night_share":15,"reefer":10,"cargo_value":0,"transparency":0,"escalation":5},"headline":"Vehicle MH04LE3023 \u2014 12 halts at Waghmare Vasti area across 2 drivers","entities":{"vehicle_number":"MH04LE3023","vehicle_type":"REEFER_8FT_TRUCK","transporter_branch":"TRUSTECH-ZEPTO","unique_drivers":2},"location":{"cluster_id":"18.62100,74.06400","lat":18.6206,"lng":74.0653,"nearest_poi_name":"Waghmare Vasti","nearest_poi_type":"unknown","nearest_poi_category":"unknown","distance_to_poi_km":1.2222,"label":"Waghmare Vasti area"},"stats":{"count":12,"median_duration_hrs":16.683333333333334,"night_share":1.0,"reefer_share":1.0,"unique_drivers":2},"evidence":[{"trip_id":"54444248","ts":"2026-04-08 03:01","duration_hrs":10.62,"lat":18.6219,"lng":74.0651,"net_weight":10.6,"escalation":3,"distance_to_poi_km":1.109,"nearest_poi_name":"Perane"},{"trip_id":"54531503","ts":"2026-04-10 01:31","duration_hrs":17.07,"lat":18.6204,"lng":74.0652,"net_weight":761.9,"escalation":3,"distance_to_poi_km":1.225,"nearest_poi_name":"Waghmare Vasti"},{"trip_id":"55299871","ts":"2026-04-27 23:56","duration_hrs":18.25,"lat":18.6209,"lng":74.0653,"net_weight":551.1,"escalation":3,"distance_to_poi_km":1.222,"nearest_poi_name":"Perane"},{"trip_id":"55340808","ts":"2026-04-27 23:56","duration_hrs":18.25,"lat":18.6209,"lng":74.0653,"net_weight":748.7,"escalation":3,"distance_to_poi_km":1.222,"nearest_poi_name":"Perane"},{"trip_id":"55299868","ts":"2026-04-27 23:56","duration_hrs":18.25,"lat":18.6209,"lng":74.0653,"net_weight":551.1,"escalation":3,"distance_to_poi_km":1.222,"nearest_poi_name":"Perane"},{"trip_id":"55438703","ts":"2026-04-30 00:36","duration_hrs":10.18,"lat":18.6197,"lng":74.0653,"net_weight":655.6,"escalation":3,"distance_to_poi_km":1.185,"nearest_poi_name":"Waghmare Vasti"},{"trip_id":"55505310","ts":"2026-05-02 01:36","duration_hrs":11.43,"lat":18.6206,"lng":74.0653,"net_weight":577.6,"escalation":3,"distance_to_poi_km":1.225,"nearest_poi_name":"Waghmare Vasti"},{"trip_id":"55505300","ts":"2026-05-02 01:36","duration_hrs":11.43,"lat":18.6206,"lng":74.0653,"net_weight":577.6,"escalation":3,"distance_to_poi_km":1.225,"nearest_poi_name":"Waghmare Vasti"},{"trip_id":"55505305","ts":"2026-05-02 01:36","duration_hrs":11.43,"lat":18.6206,"lng":74.0653,"net_weight":577.6,"escalation":3,"distance_to_poi_km":1.225,"nearest_poi_name":"Waghmare Vasti"},{"trip_id":"55935114","ts":"2026-05-11 23:47","duration_hrs":16.68,"lat":18.62,"lng":74.0653,"net_weight":106.4,"escalation":3,"distance_to_poi_km":1.198,"nearest_poi_name":"Waghmare Vasti"}],"narrative":"Vehicle MH04LE3023 keeps returning to this spot regardless of driver. 2 distinct drivers, 12 halts, median 16.7 hr. Either the vehicle has a routine refuelling habit here, or the spot is part of the vehicle's operating pattern.","estimated_exposure_inr":16253,"recommended_action":"Audit vehicle telematics and odometer reconciliation. Brief TRUSTECH-ZEPTO on this vehicle's recurring detour.","verdict_id":"V-005"},{"type":"transporter_location","type_label":"Transporter-level recurrence","risk_score":89,"score_breakdown":{"frequency":25,"poi_absence":20,"duration":15,"night_share":14,"reefer":10,"cargo_value":0,"transparency":0,"escalation":5},"headline":"TRUSTECH-ZEPTO \u2014 4 drivers / 3 vehicles halting at Waghmare Vasti area (14 events)","entities":{"transporter_branch":"TRUSTECH-ZEPTO","unique_drivers":4,"unique_vehicles":3},"location":{"cluster_id":"18.62100,74.06400","lat":18.6206,"lng":74.0653,"nearest_poi_name":"Waghmare Vasti","nearest_poi_type":"unknown","nearest_poi_category":"unknown","distance_to_poi_km":1.2222,"label":"Waghmare Vasti area"},"stats":{"count":14,"median_duration_hrs":14.058333333333334,"night_share":0.9285714285714286,"reefer_share":1.0,"unique_drivers":4,"unique_vehicles":3},"evidence":[{"trip_id":"54239565","ts":"2026-04-02 16:21","duration_hrs":0.97,"lat":18.62204,"lng":74.06509,"net_weight":737.7,"escalation":2,"distance_to_poi_km":1.094,"nearest_poi_name":"Perane"},{"trip_id":"54444248","ts":"2026-04-08 03:01","duration_hrs":10.62,"lat":18.6219,"lng":74.0651,"net_weight":10.6,"escalation":3,"distance_to_poi_km":1.109,"nearest_poi_name":"Perane"},{"trip_id":"54531503","ts":"2026-04-10 01:31","duration_hrs":17.07,"lat":18.6204,"lng":74.0652,"net_weight":761.9,"escalation":3,"distance_to_poi_km":1.225,"nearest_poi_name":"Waghmare Vasti"},{"trip_id":"55299871","ts":"2026-04-27 23:56","duration_hrs":18.25,"lat":18.6209,"lng":74.0653,"net_weight":551.1,"escalation":3,"distance_to_poi_km":1.222,"nearest_poi_name":"Perane"},{"trip_id":"55340808","ts":"2026-04-27 23:56","duration_hrs":18.25,"lat":18.6209,"lng":74.0653,"net_weight":748.7,"escalation":3,"distance_to_poi_km":1.222,"nearest_poi_name":"Perane"},{"trip_id":"55299868","ts":"2026-04-27 23:56","duration_hrs":18.25,"lat":18.6209,"lng":74.0653,"net_weight":551.1,"escalation":3,"distance_to_poi_km":1.222,"nearest_poi_name":"Perane"},{"trip_id":"55438703","ts":"2026-04-30 00:36","duration_hrs":10.18,"lat":18.6197,"lng":74.0653,"net_weight":655.6,"escalation":3,"distance_to_poi_km":1.185,"nearest_poi_name":"Waghmare Vasti"},{"trip_id":"55505310","ts":"2026-05-02 01:36","duration_hrs":11.43,"lat":18.6206,"lng":74.0653,"net_weight":577.6,"escalation":3,"distance_to_poi_km":1.225,"nearest_poi_name":"Waghmare Vasti"},{"trip_id":"55505300","ts":"2026-05-02 01:36","duration_hrs":11.43,"lat":18.6206,"lng":74.0653,"net_weight":577.6,"escalation":3,"distance_to_poi_km":1.225,"nearest_poi_name":"Waghmare Vasti"},{"trip_id":"55505305","ts":"2026-05-02 01:36","duration_hrs":11.43,"lat":18.6206,"lng":74.0653,"net_weight":577.6,"escalation":3,"distance_to_poi_km":1.225,"nearest_poi_name":"Waghmare Vasti"}],"narrative":"4 distinct drivers from TRUSTECH-ZEPTO converge at this spot \u2014 too widespread to be one driver's habit. 14 halts, median 14.1 hr, 92% at night. Pattern suggests the spot is institutionally known to this transporter.","estimated_exposure_inr":19408,"recommended_action":"Escalate at transporter SLA review. Ask TRUSTECH-ZEPTO ops to explain the operational reason for this Waghmare Vasti area cluster.","verdict_id":"V-006"},{"verdict_id":"V-007","type":"driver_vehicle_location","type_label":"Driver-vehicle recurrence","risk_score":87,"score_breakdown":{"frequency":25,"poi_absence":20,"duration":15,"night_share":12,"reefer":10,"cargo_value":0,"transparency":0,"escalation":5},"headline":"DEVENDRA (7796754306) + MH04LE3019 \u2014 14 night halts at Dr Sonawane Hospital area","entities":{"driver_name":"DEVENDRA","driver_number":"7796754306","vehicle_number":"MH04LE3019","vehicle_type":"REEFER_8FT_TRUCK","transporter_branch":"TRUSTECH-ZEPTO"},"location":{"cluster_id":"18.65700,74.05800","lat":18.657673,"lng":74.0589,"nearest_poi_name":"Dr Sonawane Hospital","nearest_poi_type":"hospital","nearest_poi_category":"amenity","distance_to_poi_km":1.15435,"label":"Dr Sonawane Hospital area"},"stats":{"count":14,"median_duration_hrs":13.166666666666668,"night_share":0.7857142857142857,"reefer_share":1.0},"evidence":[{"trip_id":"54017073","ts":"2026-03-29 01:20","duration_hrs":9.37,"lat":18.6581,"lng":74.0589,"net_weight":759.5,"escalation":3,"distance_to_poi_km":1.202,"nearest_poi_name":"Dr Sonawane Hospital"},{"trip_id":"54306317","ts":"2026-04-04 00:33","duration_hrs":13.4,"lat":18.6567,"lng":74.0587,"net_weight":553.5,"escalation":3,"distance_to_poi_km":1.047,"nearest_poi_name":"Dr Sonawane Hospital"},{"trip_id":"54306317","ts":"2026-04-05 00:51","duration_hrs":13.93,"lat":18.6579,"lng":74.059,"net_weight":553.5,"escalation":3,"distance_to_poi_km":1.179,"nearest_poi_name":"Dr Sonawane Hospital"},{"trip_id":"54447290","ts":"2026-04-07 06:23","duration_hrs":12.93,"lat":18.6579,"lng":74.059,"net_weight":null,"escalation":3,"distance_to_poi_km":1.179,"nearest_poi_name":"Dr Sonawane Hospital"},{"trip_id":"54669516","ts":"2026-04-13 00:26","duration_hrs":18.48,"lat":18.6571,"lng":74.0589,"net_weight":389.8,"escalation":3,"distance_to_poi_km":1.091,"nearest_poi_name":"Dr Sonawane Hospital"},{"trip_id":"54736389","ts":"2026-04-14 00:34","duration_hrs":17.95,"lat":18.6568,"lng":74.0588,"net_weight":511.6,"escalation":3,"distance_to_poi_km":1.058,"nearest_poi_name":"Dr Sonawane Hospital"},{"trip_id":"54924941","ts":"2026-04-19 00:51","duration_hrs":17.53,"lat":18.6582,"lng":74.0591,"net_weight":519.3,"escalation":3,"distance_to_poi_km":1.213,"nearest_poi_name":"Dr Sonawane Hospital"},{"trip_id":"55218164","ts":"2026-04-25 00:53","duration_hrs":17.47,"lat":18.6575,"lng":74.0589,"net_weight":531.7,"escalation":3,"distance_to_poi_km":1.135,"nearest_poi_name":"Dr Sonawane Hospital"},{"trip_id":"55178186","ts":"2026-04-25 00:53","duration_hrs":17.47,"lat":18.6575,"lng":74.0589,"net_weight":471.7,"escalation":3,"distance_to_poi_km":1.135,"nearest_poi_name":"Dr Sonawane Hospital"},{"trip_id":"55526596","ts":"2026-05-02 00:43","duration_hrs":3.47,"lat":18.658,"lng":74.059,"net_weight":494.1,"escalation":3,"distance_to_poi_km":1.191,"nearest_poi_name":"Dr Sonawane Hospital"}],"narrative":"Same driver-vehicle has stopped 14 times at this exact location. Median halt is 13.2 hours. 78% of stops fall between 22:00 and 04:00. Closest POI is Dr Sonawane Hospital (hospital) at 1.15 km \u2014 does not plausibly explain the halt.","estimated_exposure_inr":17448,"recommended_action":"Pull FASTag transit logs and weighbridge in/out for these 14 trip_ids. Brief TRUSTECH-ZEPTO branch ops on driver DEVENDRA's detour pattern."},{"verdict_id":"V-008","type":"driver_vehicle_location","type_label":"Driver-vehicle recurrence","risk_score":87,"score_breakdown":{"frequency":25,"poi_absence":12,"duration":15,"night_share":15,"reefer":10,"cargo_value":5,"transparency":0,"escalation":5},"headline":"KUSHAL (8099625115) + TS08HQ5970 \u2014 176 night halts at Arepally area","entities":{"driver_name":"KUSHAL","driver_number":"8099625115","vehicle_number":"TS08HQ5970","vehicle_type":"REEFER_10FT_TRUCK","transporter_branch":"ACCESS WAREHOSING PVT LTD-Zepto F&V"},"location":{"cluster_id":"18.46200,79.50300","lat":18.462164,"lng":79.50224,"nearest_poi_name":"Arepally","nearest_poi_type":"unknown","nearest_poi_category":"unknown","distance_to_poi_km":0.668,"label":"Arepally area"},"stats":{"count":176,"median_duration_hrs":9.033333333333333,"night_share":1.0,"reefer_share":1.0},"evidence":[{"trip_id":"55224581","ts":"2026-04-25 00:48","duration_hrs":9.03,"lat":18.46216,"lng":79.50224,"net_weight":null,"escalation":3,"distance_to_poi_km":0.668,"nearest_poi_name":"Arepally"},{"trip_id":"55223527","ts":"2026-04-25 00:48","duration_hrs":9.03,"lat":18.46216,"lng":79.50224,"net_weight":75428.6,"escalation":3,"distance_to_poi_km":0.668,"nearest_poi_name":"Arepally"},{"trip_id":"55223561","ts":"2026-04-25 00:48","duration_hrs":9.03,"lat":18.46216,"lng":79.50224,"net_weight":75428.6,"escalation":3,"distance_to_poi_km":0.668,"nearest_poi_name":"Arepally"},{"trip_id":"55223760","ts":"2026-04-25 00:48","duration_hrs":9.03,"lat":18.46216,"lng":79.50224,"net_weight":75428.6,"escalation":3,"distance_to_poi_km":0.668,"nearest_poi_name":"Arepally"},{"trip_id":"55223484","ts":"2026-04-25 00:48","duration_hrs":9.03,"lat":18.46216,"lng":79.50224,"net_weight":75428.6,"escalation":3,"distance_to_poi_km":0.668,"nearest_poi_name":"Arepally"},{"trip_id":"55223557","ts":"2026-04-25 00:48","duration_hrs":9.03,"lat":18.46216,"lng":79.50224,"net_weight":75428.6,"escalation":3,"distance_to_poi_km":0.668,"nearest_poi_name":"Arepally"},{"trip_id":"55224147","ts":"2026-04-25 00:48","duration_hrs":9.03,"lat":18.46216,"lng":79.50224,"net_weight":75428.6,"escalation":3,"distance_to_poi_km":0.668,"nearest_poi_name":"Arepally"},{"trip_id":"55223393","ts":"2026-04-25 00:48","duration_hrs":9.03,"lat":18.46216,"lng":79.50224,"net_weight":75428.6,"escalation":3,"distance_to_poi_km":0.668,"nearest_poi_name":"Arepally"},{"trip_id":"55224042","ts":"2026-04-25 00:48","duration_hrs":9.03,"lat":18.46216,"lng":79.50224,"net_weight":75428.6,"escalation":3,"distance_to_poi_km":0.668,"nearest_poi_name":"Arepally"},{"trip_id":"55223543","ts":"2026-04-25 00:48","duration_hrs":9.03,"lat":18.46216,"lng":79.50224,"net_weight":75428.6,"escalation":3,"distance_to_poi_km":0.668,"nearest_poi_name":"Arepally"}],"narrative":"Same driver-vehicle has stopped 176 times at this exact location. Median halt is 9.0 hours. 100% of stops fall between 22:00 and 04:00. Closest POI is Arepally (unknown) at 0.67 km \u2014 does not plausibly explain the halt.","estimated_exposure_inr":31861051,"recommended_action":"Pull FASTag transit logs and weighbridge in/out for these 176 trip_ids. Brief ACCESS WAREHOSING PVT LTD-Zepto F&V branch ops on driver KUSHAL's detour pattern."},{"verdict_id":"V-009","type":"driver_vehicle_location","type_label":"Driver-vehicle recurrence","risk_score":86,"score_breakdown":{"frequency":25,"poi_absence":20,"duration":15,"night_share":11,"reefer":10,"cargo_value":0,"transparency":0,"escalation":5},"headline":"Rajkumar (7080640490) + HR47E7104 \u2014 21 night halts at Tajnagar area","entities":{"driver_name":"Rajkumar","driver_number":"7080640490","vehicle_number":"HR47E7104","vehicle_type":"REEFER_8FT_TRUCK","transporter_branch":"CELCIUS LOGISTICS SOLUTIONS PRIVATE LIMITED-ZEPTO"},"location":{"cluster_id":"28.37700,76.83300","lat":28.377485,"lng":76.83204,"nearest_poi_name":"Tajnagar","nearest_poi_type":"unknown","nearest_poi_category":"unknown","distance_to_poi_km":1.09395,"label":"Tajnagar area"},"stats":{"count":21,"median_duration_hrs":6.0,"night_share":0.7619047619047619,"reefer_share":1.0},"evidence":[{"trip_id":"53570454","ts":"2026-03-19 08:35","duration_hrs":0.63,"lat":28.37639,"lng":76.83195,"net_weight":457.5,"escalation":1,"distance_to_poi_km":1.178,"nearest_poi_name":"Tajnagar"},{"trip_id":"53570294","ts":"2026-03-19 08:35","duration_hrs":0.63,"lat":28.37639,"lng":76.83195,"net_weight":457.5,"escalation":1,"distance_to_poi_km":1.178,"nearest_poi_name":"Tajnagar"},{"trip_id":"53570296","ts":"2026-03-19 08:35","duration_hrs":0.63,"lat":28.37639,"lng":76.83195,"net_weight":457.5,"escalation":1,"distance_to_poi_km":1.178,"nearest_poi_name":"Tajnagar"},{"trip_id":"53570293","ts":"2026-03-19 08:35","duration_hrs":0.63,"lat":28.37639,"lng":76.83195,"net_weight":457.5,"escalation":1,"distance_to_poi_km":1.178,"nearest_poi_name":"Tajnagar"},{"trip_id":"53745016","ts":"2026-03-23 00:21","duration_hrs":7.18,"lat":28.37639,"lng":76.83195,"net_weight":285.5,"escalation":3,"distance_to_poi_km":1.178,"nearest_poi_name":"Tajnagar"},{"trip_id":"53745020","ts":"2026-03-23 00:21","duration_hrs":7.18,"lat":28.37639,"lng":76.83195,"net_weight":285.5,"escalation":3,"distance_to_poi_km":1.178,"nearest_poi_name":"Tajnagar"},{"trip_id":"53842452","ts":"2026-03-25 01:26","duration_hrs":6.12,"lat":28.37639,"lng":76.83195,"net_weight":331.1,"escalation":3,"distance_to_poi_km":1.178,"nearest_poi_name":"Tajnagar"},{"trip_id":"53842461","ts":"2026-03-25 01:26","duration_hrs":6.12,"lat":28.37639,"lng":76.83195,"net_weight":331.1,"escalation":3,"distance_to_poi_km":1.178,"nearest_poi_name":"Tajnagar"},{"trip_id":"54158056","ts":"2026-03-31 00:13","duration_hrs":7.0,"lat":28.37639,"lng":76.83195,"net_weight":328.3,"escalation":3,"distance_to_poi_km":1.178,"nearest_poi_name":"Tajnagar"},{"trip_id":"54237190","ts":"2026-04-02 08:14","duration_hrs":1.52,"lat":28.37639,"lng":76.83195,"net_weight":264.6,"escalation":3,"distance_to_poi_km":1.178,"nearest_poi_name":"Tajnagar"}],"narrative":"Same driver-vehicle has stopped 21 times at this exact location. Median halt is 6.0 hours. 76% of stops fall between 22:00 and 04:00. Closest POI is Tajnagar (unknown) at 1.09 km \u2014 does not plausibly explain the halt.","estimated_exposure_inr":14913,"recommended_action":"Pull FASTag transit logs and weighbridge in/out for these 21 trip_ids. Brief CELCIUS LOGISTICS SOLUTIONS PRIVATE LIMITED-ZEPTO branch ops on driver Rajkumar's detour pattern."},{"type":"vehicle_location","type_label":"Vehicle-level recurrence","risk_score":86,"score_breakdown":{"frequency":25,"poi_absence":20,"duration":15,"night_share":11,"reefer":10,"cargo_value":0,"transparency":0,"escalation":5},"headline":"Vehicle KA05AG8230 \u2014 20 halts at Sellakkarichal area across 7 drivers","entities":{"vehicle_number":"KA05AG8230","vehicle_type":"REEFER_8FT_TRUCK","transporter_branch":"KK Transport-Zepto","unique_drivers":7},"location":{"cluster_id":"10.96500,77.16900","lat":10.9651,"lng":77.1696,"nearest_poi_name":"Sellakkarichal","nearest_poi_type":"unknown","nearest_poi_category":"unknown","distance_to_poi_km":1.9743,"label":"Sellakkarichal area"},"stats":{"count":20,"median_duration_hrs":2.783333333333333,"night_share":0.75,"reefer_share":1.0,"unique_drivers":7},"evidence":[{"trip_id":"54633334","ts":"2026-04-11 03:19","duration_hrs":9.87,"lat":10.9647,"lng":77.1698,"net_weight":null,"escalation":3,"distance_to_poi_km":1.934,"nearest_poi_name":"Sellakkarichal"},{"trip_id":"54822415","ts":"2026-04-16 02:40","duration_hrs":2.25,"lat":10.9651,"lng":77.1696,"net_weight":384.0,"escalation":3,"distance_to_poi_km":1.974,"nearest_poi_name":"Sellakkarichal"},{"trip_id":"54822284","ts":"2026-04-16 02:40","duration_hrs":2.25,"lat":10.9651,"lng":77.1696,"net_weight":384.0,"escalation":3,"distance_to_poi_km":1.974,"nearest_poi_name":"Sellakkarichal"},{"trip_id":"54822410","ts":"2026-04-16 02:40","duration_hrs":2.25,"lat":10.9651,"lng":77.1696,"net_weight":384.0,"escalation":3,"distance_to_poi_km":1.974,"nearest_poi_name":"Sellakkarichal"},{"trip_id":"54879808","ts":"2026-04-17 04:05","duration_hrs":0.75,"lat":10.9641,"lng":77.1698,"net_weight":null,"escalation":2,"distance_to_poi_km":1.868,"nearest_poi_name":"Sellakkarichal"},{"trip_id":"55002621","ts":"2026-04-20 00:05","duration_hrs":2.92,"lat":10.9648,"lng":77.1698,"net_weight":null,"escalation":3,"distance_to_poi_km":1.945,"nearest_poi_name":"Sellakkarichal"},{"trip_id":"55047000","ts":"2026-04-21 11:57","duration_hrs":0.55,"lat":10.9652,"lng":77.1695,"net_weight":null,"escalation":1,"distance_to_poi_km":1.984,"nearest_poi_name":"Sellakkarichal"},{"trip_id":"55139473","ts":"2026-04-22 22:53","duration_hrs":6.03,"lat":10.9636,"lng":77.17,"net_weight":null,"escalation":3,"distance_to_poi_km":1.818,"nearest_poi_name":"Sellakkarichal"},{"trip_id":"55231723","ts":"2026-04-25 01:14","duration_hrs":3.9,"lat":10.9637,"lng":77.1699,"net_weight":null,"escalation":3,"distance_to_poi_km":1.827,"nearest_poi_name":"Sellakkarichal"},{"trip_id":"55349979","ts":"2026-04-28 04:25","duration_hrs":1.62,"lat":10.9654,"lng":77.1695,"net_weight":null,"escalation":3,"distance_to_poi_km":2.006,"nearest_poi_name":"Sellakkarichal"}],"narrative":"Vehicle KA05AG8230 keeps returning to this spot regardless of driver. 7 distinct drivers, 20 halts, median 2.8 hr. Either the vehicle has a routine refuelling habit here, or the spot is part of the vehicle's operating pattern.","estimated_exposure_inr":27124,"recommended_action":"Audit vehicle telematics and odometer reconciliation. Brief KK Transport-Zepto on this vehicle's recurring detour.","verdict_id":"V-010"},{"type":"vehicle_location","type_label":"Vehicle-level recurrence","risk_score":86,"score_breakdown":{"frequency":25,"poi_absence":20,"duration":15,"night_share":11,"reefer":10,"cargo_value":0,"transparency":0,"escalation":5},"headline":"Vehicle RJ14GT2179 \u2014 18 halts at Hoshang\u0101b\u0101d area across 2 drivers","entities":{"vehicle_number":"RJ14GT2179","vehicle_type":"REEFER_8FT_TRUCK","transporter_branch":"SHREE OM SURFACE CHAIN LOGISTICS-Zepto","unique_drivers":2},"location":{"cluster_id":"22.65000,77.76600","lat":22.649941499999997,"lng":77.76584249999999,"nearest_poi_name":"Hoshang\u0101b\u0101d","nearest_poi_type":"unknown","nearest_poi_category":"unknown","distance_to_poi_km":1.5321,"label":"Hoshang\u0101b\u0101d area"},"stats":{"count":18,"median_duration_hrs":6.733333333333333,"night_share":0.7222222222222222,"reefer_share":1.0,"unique_drivers":2},"evidence":[{"trip_id":"54202988","ts":"2026-04-01 03:40","duration_hrs":2.35,"lat":22.65046,"lng":77.76561,"net_weight":null,"escalation":3,"distance_to_poi_km":1.507,"nearest_poi_name":"Hoshang\u0101b\u0101d"},{"trip_id":"54202610","ts":"2026-04-01 03:40","duration_hrs":2.35,"lat":22.65046,"lng":77.76561,"net_weight":561.0,"escalation":3,"distance_to_poi_km":1.507,"nearest_poi_name":"Hoshang\u0101b\u0101d"},{"trip_id":"54153765","ts":"2026-04-01 03:40","duration_hrs":2.35,"lat":22.65046,"lng":77.76561,"net_weight":523.0,"escalation":3,"distance_to_poi_km":1.507,"nearest_poi_name":"Hoshang\u0101b\u0101d"},{"trip_id":"54202607","ts":"2026-04-01 03:40","duration_hrs":2.35,"lat":22.65046,"lng":77.76561,"net_weight":561.0,"escalation":3,"distance_to_poi_km":1.507,"nearest_poi_name":"Hoshang\u0101b\u0101d"},{"trip_id":"54153561","ts":"2026-04-01 03:40","duration_hrs":2.35,"lat":22.65046,"lng":77.76561,"net_weight":523.0,"escalation":3,"distance_to_poi_km":1.507,"nearest_poi_name":"Hoshang\u0101b\u0101d"},{"trip_id":"54436358","ts":"2026-04-07 02:14","duration_hrs":15.8,"lat":22.64943,"lng":77.76608,"net_weight":470.0,"escalation":3,"distance_to_poi_km":1.558,"nearest_poi_name":"Hoshang\u0101b\u0101d"},{"trip_id":"54393293","ts":"2026-04-07 02:14","duration_hrs":15.8,"lat":22.64943,"lng":77.76608,"net_weight":560.8,"escalation":3,"distance_to_poi_km":1.558,"nearest_poi_name":"Hoshang\u0101b\u0101d"},{"trip_id":"54436260","ts":"2026-04-07 02:14","duration_hrs":15.8,"lat":22.64943,"lng":77.76608,"net_weight":470.0,"escalation":3,"distance_to_poi_km":1.558,"nearest_poi_name":"Hoshang\u0101b\u0101d"},{"trip_id":"54393393","ts":"2026-04-07 02:14","duration_hrs":15.8,"lat":22.64943,"lng":77.76608,"net_weight":560.8,"escalation":3,"distance_to_poi_km":1.558,"nearest_poi_name":"Hoshang\u0101b\u0101d"},{"trip_id":"54615638","ts":"2026-04-10 22:14","duration_hrs":15.35,"lat":22.65119,"lng":77.76527,"net_weight":378.8,"escalation":3,"distance_to_poi_km":1.475,"nearest_poi_name":"Hoshang\u0101b\u0101d"}],"narrative":"Vehicle RJ14GT2179 keeps returning to this spot regardless of driver. 2 distinct drivers, 18 halts, median 6.7 hr. Either the vehicle has a routine refuelling habit here, or the spot is part of the vehicle's operating pattern.","estimated_exposure_inr":24186,"recommended_action":"Audit vehicle telematics and odometer reconciliation. Brief SHREE OM SURFACE CHAIN LOGISTICS-Zepto on this vehicle's recurring detour.","verdict_id":"V-011"},{"verdict_id":"V-012","type":"driver_vehicle_location","type_label":"Driver-vehicle recurrence","risk_score":85,"score_breakdown":{"frequency":15,"poi_absence":20,"duration":15,"night_share":15,"reefer":10,"cargo_value":0,"transparency":5,"escalation":5},"headline":"Biswajit Biswas (6290049912) + WB19R3668 \u2014 8 night halts at PHC, Sihar area","entities":{"driver_name":"Biswajit Biswas","driver_number":"6290049912","vehicle_number":"WB19R3668","vehicle_type":"REEFER_8FT_TRUCK","transporter_branch":"Manasha Logistics-Zepto"},"location":{"cluster_id":"22.91700,87.59100","lat":22.916077,"lng":87.59022,"nearest_poi_name":"PHC, Sihar","nearest_poi_type":"unknown","nearest_poi_category":"unknown","distance_to_poi_km":1.3544,"label":"PHC, Sihar area"},"stats":{"count":8,"median_duration_hrs":6.683333333333334,"night_share":1.0,"reefer_share":1.0},"evidence":[{"trip_id":"54537189","ts":"2026-04-10 03:04","duration_hrs":6.68,"lat":22.91608,"lng":87.59022,"net_weight":653.4,"escalation":3,"distance_to_poi_km":1.354,"nearest_poi_name":"PHC, Sihar"},{"trip_id":"54537198","ts":"2026-04-10 03:04","duration_hrs":6.68,"lat":22.91608,"lng":87.59022,"net_weight":653.4,"escalation":3,"distance_to_poi_km":1.354,"nearest_poi_name":"PHC, Sihar"},{"trip_id":"54537192","ts":"2026-04-10 03:04","duration_hrs":6.68,"lat":22.91608,"lng":87.59022,"net_weight":653.4,"escalation":3,"distance_to_poi_km":1.354,"nearest_poi_name":"PHC, Sihar"},{"trip_id":"54584930","ts":"2026-04-10 03:04","duration_hrs":6.68,"lat":22.91608,"lng":87.59022,"net_weight":null,"escalation":3,"distance_to_poi_km":1.354,"nearest_poi_name":"PHC, Sihar"},{"trip_id":"54582373","ts":"2026-04-10 03:04","duration_hrs":6.68,"lat":22.91608,"lng":87.59022,"net_weight":1249.4,"escalation":3,"distance_to_poi_km":1.354,"nearest_poi_name":"PHC, Sihar"},{"trip_id":"54580814","ts":"2026-04-10 03:04","duration_hrs":6.68,"lat":22.91608,"lng":87.59022,"net_weight":1249.4,"escalation":3,"distance_to_poi_km":1.354,"nearest_poi_name":"PHC, Sihar"},{"trip_id":"54582372","ts":"2026-04-10 03:04","duration_hrs":6.68,"lat":22.91608,"lng":87.59022,"net_weight":1249.4,"escalation":3,"distance_to_poi_km":1.354,"nearest_poi_name":"PHC, Sihar"},{"trip_id":"54582388","ts":"2026-04-10 03:04","duration_hrs":6.68,"lat":22.91608,"lng":87.59022,"net_weight":1249.4,"escalation":3,"distance_to_poi_km":1.354,"nearest_poi_name":"PHC, Sihar"}],"narrative":"Same driver-vehicle has stopped 8 times at this exact location. Median halt is 6.7 hours. 100% of stops fall between 22:00 and 04:00. Closest POI is PHC, Sihar (unknown) at 1.35 km \u2014 does not plausibly explain the halt.","estimated_exposure_inr":23987,"recommended_action":"Pull FASTag transit logs and weighbridge in/out for these 8 trip_ids. Brief Manasha Logistics-Zepto branch ops on driver Biswajit Biswas's detour pattern."},{"verdict_id":"V-013","type":"driver_vehicle_location","type_label":"Driver-vehicle recurrence","risk_score":85,"score_breakdown":{"frequency":25,"poi_absence":20,"duration":10,"night_share":15,"reefer":10,"cargo_value":0,"transparency":0,"escalation":5},"headline":"PARMESH (7338435634) + KA52C7108 \u2014 10 night halts at Kenchaganahalli area","entities":{"driver_name":"PARMESH","driver_number":"7338435634","vehicle_number":"KA52C7108","vehicle_type":"REEFER_10FT_TRUCK","transporter_branch":"Southcold"},"location":{"cluster_id":"13.62000,76.94700","lat":13.621072,"lng":76.94805,"nearest_poi_name":"Kenchaganahalli","nearest_poi_type":"unknown","nearest_poi_category":"unknown","distance_to_poi_km":1.1603,"label":"Kenchaganahalli area"},"stats":{"count":10,"median_duration_hrs":1.6166666666666667,"night_share":1.0,"reefer_share":1.0},"evidence":[{"trip_id":"54532276","ts":"2026-04-08 23:57","duration_hrs":1.62,"lat":13.62107,"lng":76.94805,"net_weight":1619.8,"escalation":3,"distance_to_poi_km":1.16,"nearest_poi_name":"Kenchaganahalli"},{"trip_id":"54532258","ts":"2026-04-08 23:57","duration_hrs":1.62,"lat":13.62107,"lng":76.94805,"net_weight":1619.8,"escalation":3,"distance_to_poi_km":1.16,"nearest_poi_name":"Kenchaganahalli"},{"trip_id":"54532269","ts":"2026-04-08 23:57","duration_hrs":1.62,"lat":13.62107,"lng":76.94805,"net_weight":1619.8,"escalation":3,"distance_to_poi_km":1.16,"nearest_poi_name":"Kenchaganahalli"},{"trip_id":"54532260","ts":"2026-04-08 23:57","duration_hrs":1.62,"lat":13.62107,"lng":76.94805,"net_weight":1619.8,"escalation":3,"distance_to_poi_km":1.16,"nearest_poi_name":"Kenchaganahalli"},{"trip_id":"54532268","ts":"2026-04-08 23:57","duration_hrs":1.62,"lat":13.62107,"lng":76.94805,"net_weight":1619.8,"escalation":3,"distance_to_poi_km":1.16,"nearest_poi_name":"Kenchaganahalli"},{"trip_id":"54532265","ts":"2026-04-08 23:57","duration_hrs":1.62,"lat":13.62107,"lng":76.94805,"net_weight":1619.8,"escalation":3,"distance_to_poi_km":1.16,"nearest_poi_name":"Kenchaganahalli"},{"trip_id":"54532259","ts":"2026-04-08 23:57","duration_hrs":1.62,"lat":13.62107,"lng":76.94805,"net_weight":1619.8,"escalation":3,"distance_to_poi_km":1.16,"nearest_poi_name":"Kenchaganahalli"},{"trip_id":"54532249","ts":"2026-04-08 23:57","duration_hrs":1.62,"lat":13.62107,"lng":76.94805,"net_weight":1619.8,"escalation":3,"distance_to_poi_km":1.16,"nearest_poi_name":"Kenchaganahalli"},{"trip_id":"54532262","ts":"2026-04-08 23:57","duration_hrs":1.62,"lat":13.62107,"lng":76.94805,"net_weight":1619.8,"escalation":3,"distance_to_poi_km":1.16,"nearest_poi_name":"Kenchaganahalli"},{"trip_id":"54532267","ts":"2026-04-08 23:57","duration_hrs":1.62,"lat":13.62107,"lng":76.94805,"net_weight":1619.8,"escalation":3,"distance_to_poi_km":1.16,"nearest_poi_name":"Kenchaganahalli"}],"narrative":"Same driver-vehicle has stopped 10 times at this exact location. Median halt is 1.6 hours. 100% of stops fall between 22:00 and 04:00. Closest POI is Kenchaganahalli (unknown) at 1.16 km \u2014 does not plausibly explain the halt.","estimated_exposure_inr":38875,"recommended_action":"Pull FASTag transit logs and weighbridge in/out for these 10 trip_ids. Brief Southcold branch ops on driver PARMESH's detour pattern."},{"verdict_id":"V-014","type":"driver_vehicle_location","type_label":"Driver-vehicle recurrence","risk_score":85,"score_breakdown":{"frequency":25,"poi_absence":20,"duration":15,"night_share":15,"reefer":0,"cargo_value":0,"transparency":5,"escalation":5},"headline":"Raj (7518779390) + UP56T0566 \u2014 10 night halts at SubCentre, Banthara area","entities":{"driver_name":"Raj","driver_number":"7518779390","vehicle_number":"UP56T0566","vehicle_type":"14FT_TRUCK","transporter_branch":"A & A ASSOCIATES_Zepto F/V"},"location":{"cluster_id":"26.68200,80.85000","lat":26.683332,"lng":80.84889,"nearest_poi_name":"SubCentre, Banthara","nearest_poi_type":"unknown","nearest_poi_category":"unknown","distance_to_poi_km":1.9638,"label":"SubCentre, Banthara area"},"stats":{"count":10,"median_duration_hrs":2.3666666666666667,"night_share":1.0,"reefer_share":0.0},"evidence":[{"trip_id":"54586348","ts":"2026-04-10 22:04","duration_hrs":2.37,"lat":26.68333,"lng":80.84889,"net_weight":424.1,"escalation":3,"distance_to_poi_km":1.964,"nearest_poi_name":"SubCentre, Banthara"},{"trip_id":"54581027","ts":"2026-04-10 22:04","duration_hrs":2.37,"lat":26.68333,"lng":80.84889,"net_weight":919.2,"escalation":3,"distance_to_poi_km":1.964,"nearest_poi_name":"SubCentre, Banthara"},{"trip_id":"54579496","ts":"2026-04-10 22:04","duration_hrs":2.37,"lat":26.68333,"lng":80.84889,"net_weight":919.2,"escalation":3,"distance_to_poi_km":1.964,"nearest_poi_name":"SubCentre, Banthara"},{"trip_id":"54581654","ts":"2026-04-10 22:04","duration_hrs":2.37,"lat":26.68333,"lng":80.84889,"net_weight":919.2,"escalation":3,"distance_to_poi_km":1.964,"nearest_poi_name":"SubCentre, Banthara"},{"trip_id":"54581025","ts":"2026-04-10 22:04","duration_hrs":2.37,"lat":26.68333,"lng":80.84889,"net_weight":919.2,"escalation":3,"distance_to_poi_km":1.964,"nearest_poi_name":"SubCentre, Banthara"},{"trip_id":"54581652","ts":"2026-04-10 22:04","duration_hrs":2.37,"lat":26.68333,"lng":80.84889,"net_weight":919.2,"escalation":3,"distance_to_poi_km":1.964,"nearest_poi_name":"SubCentre, Banthara"},{"trip_id":"54579632","ts":"2026-04-10 22:04","duration_hrs":2.37,"lat":26.68333,"lng":80.84889,"net_weight":919.2,"escalation":3,"distance_to_poi_km":1.964,"nearest_poi_name":"SubCentre, Banthara"},{"trip_id":"54586347","ts":"2026-04-10 22:04","duration_hrs":2.37,"lat":26.68333,"lng":80.84889,"net_weight":424.1,"escalation":3,"distance_to_poi_km":1.964,"nearest_poi_name":"SubCentre, Banthara"},{"trip_id":"54631017","ts":"2026-04-10 23:00","duration_hrs":1.43,"lat":26.68333,"lng":80.84889,"net_weight":1043.2,"escalation":2,"distance_to_poi_km":1.964,"nearest_poi_name":"SubCentre, Banthara"},{"trip_id":"54631016","ts":"2026-04-10 23:37","duration_hrs":0.82,"lat":26.68333,"lng":80.84889,"net_weight":1043.2,"escalation":2,"distance_to_poi_km":1.964,"nearest_poi_name":"SubCentre, Banthara"}],"narrative":"Same driver-vehicle has stopped 10 times at this exact location. Median halt is 2.4 hours. 100% of stops fall between 22:00 and 04:00. Closest POI is SubCentre, Banthara (unknown) at 1.96 km \u2014 does not plausibly explain the halt.","estimated_exposure_inr":22061,"recommended_action":"Pull FASTag transit logs and weighbridge in/out for these 10 trip_ids. Brief A & A ASSOCIATES_Zepto F/V branch ops on driver Raj's detour pattern."},{"verdict_id":"V-015","type":"driver_vehicle_location","type_label":"Driver-vehicle recurrence","risk_score":85,"score_breakdown":{"frequency":25,"poi_absence":10,"duration":15,"night_share":15,"reefer":10,"cargo_value":5,"transparency":0,"escalation":5},"headline":"KUSHAL (8099625115) + TS08HQ5970 \u2014 177 night halts at BAYAMMAPALLY area","entities":{"driver_name":"KUSHAL","driver_number":"8099625115","vehicle_number":"TS08HQ5970","vehicle_type":"REEFER_10FT_TRUCK","transporter_branch":"ACCESS WAREHOSING PVT LTD-Zepto F&V"},"location":{"cluster_id":"18.42000,79.47000","lat":18.421343,"lng":79.468765,"nearest_poi_name":"BAYAMMAPALLY","nearest_poi_type":"childcare","nearest_poi_category":"amenity","distance_to_poi_km":0.1414,"label":"BAYAMMAPALLY area"},"stats":{"count":177,"median_duration_hrs":19.65,"night_share":1.0,"reefer_share":1.0},"evidence":[{"trip_id":"54875531","ts":"2026-04-17 23:24","duration_hrs":19.65,"lat":18.42134,"lng":79.46877,"net_weight":56477.8,"escalation":3,"distance_to_poi_km":0.141,"nearest_poi_name":"BAYAMMAPALLY"},{"trip_id":"54920488","ts":"2026-04-17 23:24","duration_hrs":19.65,"lat":18.42134,"lng":79.46877,"net_weight":54175.4,"escalation":3,"distance_to_poi_km":0.141,"nearest_poi_name":"BAYAMMAPALLY"},{"trip_id":"54920391","ts":"2026-04-17 23:24","duration_hrs":19.65,"lat":18.42134,"lng":79.46877,"net_weight":54175.4,"escalation":3,"distance_to_poi_km":0.141,"nearest_poi_name":"BAYAMMAPALLY"},{"trip_id":"54875499","ts":"2026-04-17 23:24","duration_hrs":19.65,"lat":18.42134,"lng":79.46877,"net_weight":56477.8,"escalation":3,"distance_to_poi_km":0.141,"nearest_poi_name":"BAYAMMAPALLY"},{"trip_id":"54875426","ts":"2026-04-17 23:24","duration_hrs":19.65,"lat":18.42134,"lng":79.46877,"net_weight":56477.8,"escalation":3,"distance_to_poi_km":0.141,"nearest_poi_name":"BAYAMMAPALLY"},{"trip_id":"54875533","ts":"2026-04-17 23:24","duration_hrs":19.65,"lat":18.42134,"lng":79.46877,"net_weight":56477.8,"escalation":3,"distance_to_poi_km":0.141,"nearest_poi_name":"BAYAMMAPALLY"},{"trip_id":"54875391","ts":"2026-04-17 23:24","duration_hrs":19.65,"lat":18.42134,"lng":79.46877,"net_weight":56477.8,"escalation":3,"distance_to_poi_km":0.141,"nearest_poi_name":"BAYAMMAPALLY"},{"trip_id":"54875595","ts":"2026-04-17 23:24","duration_hrs":19.65,"lat":18.42134,"lng":79.46877,"net_weight":56477.8,"escalation":3,"distance_to_poi_km":0.141,"nearest_poi_name":"BAYAMMAPALLY"},{"trip_id":"54875427","ts":"2026-04-17 23:24","duration_hrs":19.65,"lat":18.42134,"lng":79.46877,"net_weight":56477.8,"escalation":3,"distance_to_poi_km":0.141,"nearest_poi_name":"BAYAMMAPALLY"},{"trip_id":"54920419","ts":"2026-04-17 23:24","duration_hrs":19.65,"lat":18.42134,"lng":79.46877,"net_weight":54175.4,"escalation":3,"distance_to_poi_km":0.141,"nearest_poi_name":"BAYAMMAPALLY"}],"narrative":"Same driver-vehicle has stopped 177 times at this exact location. Median halt is 19.6 hours. 100% of stops fall between 22:00 and 04:00. Closest POI is BAYAMMAPALLY (childcare) at 0.14 km \u2014 does not plausibly explain the halt.","estimated_exposure_inr":23013701,"recommended_action":"Pull FASTag transit logs and weighbridge in/out for these 177 trip_ids. Brief ACCESS WAREHOSING PVT LTD-Zepto F&V branch ops on driver KUSHAL's detour pattern."},{"verdict_id":"V-016","type":"driver_vehicle_location","type_label":"Driver-vehicle recurrence","risk_score":85,"score_breakdown":{"frequency":25,"poi_absence":20,"duration":15,"night_share":10,"reefer":10,"cargo_value":0,"transparency":0,"escalation":5},"headline":"Murugan (9345743801) + KA05AG8230 \u2014 10 night halts at Sellakkarichal area","entities":{"driver_name":"Murugan","driver_number":"9345743801","vehicle_number":"KA05AG8230","vehicle_type":"REEFER_8FT_TRUCK","transporter_branch":"KK Transport-Zepto"},"location":{"cluster_id":"10.96500,77.16900","lat":10.9651,"lng":77.1696,"nearest_poi_name":"Sellakkarichal","nearest_poi_type":"unknown","nearest_poi_category":"unknown","distance_to_poi_km":1.9743,"label":"Sellakkarichal area"},"stats":{"count":10,"median_duration_hrs":3.1416666666666666,"night_share":0.7,"reefer_share":1.0},"evidence":[{"trip_id":"55002621","ts":"2026-04-20 00:05","duration_hrs":2.92,"lat":10.9648,"lng":77.1698,"net_weight":null,"escalation":3,"distance_to_poi_km":1.945,"nearest_poi_name":"Sellakkarichal"},{"trip_id":"55139473","ts":"2026-04-22 22:53","duration_hrs":6.03,"lat":10.9636,"lng":77.17,"net_weight":null,"escalation":3,"distance_to_poi_km":1.818,"nearest_poi_name":"Sellakkarichal"},{"trip_id":"55349979","ts":"2026-04-28 04:25","duration_hrs":1.62,"lat":10.9654,"lng":77.1695,"net_weight":null,"escalation":3,"distance_to_poi_km":2.006,"nearest_poi_name":"Sellakkarichal"},{"trip_id":"55387496","ts":"2026-04-29 01:10","duration_hrs":4.15,"lat":10.966,"lng":77.1694,"net_weight":1279.2,"escalation":3,"distance_to_poi_km":2.07,"nearest_poi_name":"Sellakkarichal"},{"trip_id":"55493462","ts":"2026-05-02 04:10","duration_hrs":0.8,"lat":10.9652,"lng":77.1696,"net_weight":897.7,"escalation":2,"distance_to_poi_km":1.985,"nearest_poi_name":"Sellakkarichal"},{"trip_id":"55567548","ts":"2026-05-03 02:50","duration_hrs":2.65,"lat":10.9655,"lng":77.1694,"net_weight":null,"escalation":3,"distance_to_poi_km":2.015,"nearest_poi_name":"Sellakkarichal"},{"trip_id":"55787971","ts":"2026-05-08 01:26","duration_hrs":3.37,"lat":10.9648,"lng":77.1698,"net_weight":null,"escalation":3,"distance_to_poi_km":1.945,"nearest_poi_name":"Sellakkarichal"},{"trip_id":"55909077","ts":"2026-05-11 04:01","duration_hrs":0.88,"lat":10.9662,"lng":77.1694,"net_weight":278.7,"escalation":2,"distance_to_poi_km":2.092,"nearest_poi_name":"Sellakkarichal"},{"trip_id":"56049670","ts":"2026-05-14 00:29","duration_hrs":5.83,"lat":10.9652,"lng":77.1696,"net_weight":null,"escalation":3,"distance_to_poi_km":1.985,"nearest_poi_name":"Sellakkarichal"},{"trip_id":"56055240","ts":"2026-05-14 00:29","duration_hrs":5.83,"lat":10.9652,"lng":77.1696,"net_weight":null,"escalation":3,"distance_to_poi_km":1.985,"nearest_poi_name":"Sellakkarichal"}],"narrative":"Same driver-vehicle has stopped 10 times at this exact location. Median halt is 3.1 hours. 70% of stops fall between 22:00 and 04:00. Closest POI is Sellakkarichal (unknown) at 1.97 km \u2014 does not plausibly explain the halt.","estimated_exposure_inr":21544,"recommended_action":"Pull FASTag transit logs and weighbridge in/out for these 10 trip_ids. Brief KK Transport-Zepto branch ops on driver Murugan's detour pattern."},{"verdict_id":"V-017","type":"driver_vehicle_location","type_label":"Driver-vehicle recurrence","risk_score":85,"score_breakdown":{"frequency":25,"poi_absence":20,"duration":15,"night_share":15,"reefer":0,"cargo_value":5,"transparency":0,"escalation":5},"headline":"RINKU (9557011483) + NL01AF3177 \u2014 10 night halts at Maruti Vihar area","entities":{"driver_name":"RINKU","driver_number":"9557011483","vehicle_number":"NL01AF3177","vehicle_type":"32FT_TRUCK_MXL","transporter_branch":"Instant Transport Solution Pvt Ltd-Zepto"},"location":{"cluster_id":"30.24600,78.09900","lat":30.24576,"lng":78.098305,"nearest_poi_name":"Maruti Vihar","nearest_poi_type":"unknown","nearest_poi_category":"unknown","distance_to_poi_km":1.2689,"label":"Maruti Vihar area"},"stats":{"count":10,"median_duration_hrs":7.416666666666666,"night_share":1.0,"reefer_share":0.0},"evidence":[{"trip_id":"53598356","ts":"2026-03-20 02:39","duration_hrs":2.2,"lat":30.24464,"lng":78.09928,"net_weight":6693.3,"escalation":3,"distance_to_poi_km":1.26,"nearest_poi_name":"Maruti Vihar"},{"trip_id":"53598382","ts":"2026-03-20 02:39","duration_hrs":2.2,"lat":30.24464,"lng":78.09928,"net_weight":6693.3,"escalation":3,"distance_to_poi_km":1.26,"nearest_poi_name":"Maruti Vihar"},{"trip_id":"53598374","ts":"2026-03-20 02:39","duration_hrs":2.2,"lat":30.24464,"lng":78.09928,"net_weight":6693.3,"escalation":3,"distance_to_poi_km":1.26,"nearest_poi_name":"Maruti Vihar"},{"trip_id":"53598326","ts":"2026-03-20 02:39","duration_hrs":2.2,"lat":30.24464,"lng":78.09928,"net_weight":6693.3,"escalation":3,"distance_to_poi_km":1.26,"nearest_poi_name":"Maruti Vihar"},{"trip_id":"53598373","ts":"2026-03-20 02:39","duration_hrs":2.2,"lat":30.24464,"lng":78.09928,"net_weight":6693.3,"escalation":3,"distance_to_poi_km":1.26,"nearest_poi_name":"Maruti Vihar"},{"trip_id":"53768074","ts":"2026-03-23 23:45","duration_hrs":12.63,"lat":30.2455,"lng":78.09853,"net_weight":8389.3,"escalation":3,"distance_to_poi_km":1.265,"nearest_poi_name":"Maruti Vihar"},{"trip_id":"53768025","ts":"2026-03-23 23:45","duration_hrs":12.63,"lat":30.2455,"lng":78.09853,"net_weight":8389.3,"escalation":3,"distance_to_poi_km":1.265,"nearest_poi_name":"Maruti Vihar"},{"trip_id":"53768067","ts":"2026-03-23 23:45","duration_hrs":12.63,"lat":30.2455,"lng":78.09853,"net_weight":8389.3,"escalation":3,"distance_to_poi_km":1.265,"nearest_poi_name":"Maruti Vihar"},{"trip_id":"53768065","ts":"2026-03-23 23:45","duration_hrs":12.63,"lat":30.2455,"lng":78.09853,"net_weight":8389.3,"escalation":3,"distance_to_poi_km":1.265,"nearest_poi_name":"Maruti Vihar"},{"trip_id":"53768076","ts":"2026-03-23 23:45","duration_hrs":12.63,"lat":30.2455,"lng":78.09853,"net_weight":8389.3,"escalation":3,"distance_to_poi_km":1.265,"nearest_poi_name":"Maruti Vihar"}],"narrative":"Same driver-vehicle has stopped 10 times at this exact location. Median halt is 7.4 hours. 100% of stops fall between 22:00 and 04:00. Closest POI is Maruti Vihar (unknown) at 1.27 km \u2014 does not plausibly explain the halt.","estimated_exposure_inr":180990,"recommended_action":"Pull FASTag transit logs and weighbridge in/out for these 10 trip_ids. Brief Instant Transport Solution Pvt Ltd-Zepto branch ops on driver RINKU's detour pattern."},{"verdict_id":"V-018","type":"driver_vehicle_location","type_label":"Driver-vehicle recurrence","risk_score":85,"score_breakdown":{"frequency":25,"poi_absence":20,"duration":15,"night_share":15,"reefer":0,"cargo_value":5,"transparency":0,"escalation":5},"headline":"MAKSUD (9813842451) + RJ23GC2589 \u2014 11 night halts at Niljai area","entities":{"driver_name":"MAKSUD","driver_number":"9813842451","vehicle_number":"RJ23GC2589","vehicle_type":"32FT_TRUCK_SXL","transporter_branch":"Redefine-Zepto"},"location":{"cluster_id":"20.08200,78.55800","lat":20.082514,"lng":78.55892,"nearest_poi_name":"Niljai","nearest_poi_type":"unknown","nearest_poi_category":"unknown","distance_to_poi_km":1.3193,"label":"Niljai area"},"stats":{"count":11,"median_duration_hrs":4.05,"night_share":1.0,"reefer_share":0.0},"evidence":[{"trip_id":"53473410","ts":"2026-03-18 01:03","duration_hrs":5.97,"lat":20.08259,"lng":78.55939,"net_weight":5261.1,"escalation":3,"distance_to_poi_km":1.292,"nearest_poi_name":"Niljai"},{"trip_id":"53473389","ts":"2026-03-18 01:03","duration_hrs":5.97,"lat":20.08259,"lng":78.55939,"net_weight":5261.1,"escalation":3,"distance_to_poi_km":1.292,"nearest_poi_name":"Niljai"},{"trip_id":"53473423","ts":"2026-03-18 01:03","duration_hrs":5.97,"lat":20.08259,"lng":78.55939,"net_weight":5261.1,"escalation":3,"distance_to_poi_km":1.292,"nearest_poi_name":"Niljai"},{"trip_id":"53473380","ts":"2026-03-18 01:03","duration_hrs":5.97,"lat":20.08259,"lng":78.55939,"net_weight":5261.1,"escalation":3,"distance_to_poi_km":1.292,"nearest_poi_name":"Niljai"},{"trip_id":"53473397","ts":"2026-03-18 01:03","duration_hrs":5.97,"lat":20.08259,"lng":78.55939,"net_weight":5261.1,"escalation":3,"distance_to_poi_km":1.292,"nearest_poi_name":"Niljai"},{"trip_id":"54785703","ts":"2026-04-15 23:47","duration_hrs":4.05,"lat":20.08208,"lng":78.55892,"net_weight":7126.6,"escalation":3,"distance_to_poi_km":1.319,"nearest_poi_name":"Niljai"},{"trip_id":"54785629","ts":"2026-04-15 23:47","duration_hrs":4.05,"lat":20.08208,"lng":78.55892,"net_weight":7126.6,"escalation":3,"distance_to_poi_km":1.319,"nearest_poi_name":"Niljai"},{"trip_id":"54785790","ts":"2026-04-15 23:47","duration_hrs":4.05,"lat":20.08208,"lng":78.55892,"net_weight":7126.6,"escalation":3,"distance_to_poi_km":1.319,"nearest_poi_name":"Niljai"},{"trip_id":"54785678","ts":"2026-04-15 23:47","duration_hrs":4.05,"lat":20.08208,"lng":78.55892,"net_weight":7126.6,"escalation":3,"distance_to_poi_km":1.319,"nearest_poi_name":"Niljai"},{"trip_id":"54785832","ts":"2026-04-15 23:47","duration_hrs":4.05,"lat":20.08208,"lng":78.55892,"net_weight":7126.6,"escalation":3,"distance_to_poi_km":1.319,"nearest_poi_name":"Niljai"}],"narrative":"Same driver-vehicle has stopped 11 times at this exact location. Median halt is 4.0 hours. 100% of stops fall between 22:00 and 04:00. Closest POI is Niljai (unknown) at 1.32 km \u2014 does not plausibly explain the halt.","estimated_exposure_inr":163516,"recommended_action":"Pull FASTag transit logs and weighbridge in/out for these 11 trip_ids. Brief Redefine-Zepto branch ops on driver MAKSUD's detour pattern."},{"type":"vehicle_location","type_label":"Vehicle-level recurrence","risk_score":85,"score_breakdown":{"frequency":25,"poi_absence":20,"duration":15,"night_share":15,"reefer":0,"cargo_value":5,"transparency":0,"escalation":5},"headline":"Vehicle RJ23GC2565 \u2014 13 halts at Pochara area across 2 drivers","entities":{"vehicle_number":"RJ23GC2565","vehicle_type":"32FT_TRUCK_SXL","transporter_branch":"Redefine-Zepto","unique_drivers":2},"location":{"cluster_id":"19.69800,78.50700","lat":19.697847,"lng":78.50687,"nearest_poi_name":"Pochara","nearest_poi_type":"unknown","nearest_poi_category":"unknown","distance_to_poi_km":1.0628,"label":"Pochara area"},"stats":{"count":13,"median_duration_hrs":7.983333333333333,"night_share":1.0,"reefer_share":0.0,"unique_drivers":2},"evidence":[{"trip_id":"54109511","ts":"2026-03-30 22:51","duration_hrs":7.98,"lat":19.69833,"lng":78.50767,"net_weight":6675.0,"escalation":3,"distance_to_poi_km":1.143,"nearest_poi_name":"Pochara"},{"trip_id":"54109624","ts":"2026-03-30 22:51","duration_hrs":7.98,"lat":19.69833,"lng":78.50767,"net_weight":6675.0,"escalation":3,"distance_to_poi_km":1.143,"nearest_poi_name":"Pochara"},{"trip_id":"54109581","ts":"2026-03-30 22:51","duration_hrs":7.98,"lat":19.69833,"lng":78.50767,"net_weight":6675.0,"escalation":3,"distance_to_poi_km":1.143,"nearest_poi_name":"Pochara"},{"trip_id":"54132645","ts":"2026-03-30 22:51","duration_hrs":7.98,"lat":19.69833,"lng":78.50767,"net_weight":null,"escalation":3,"distance_to_poi_km":1.143,"nearest_poi_name":"Pochara"},{"trip_id":"54209759","ts":"2026-04-01 22:20","duration_hrs":8.38,"lat":19.69837,"lng":78.50772,"net_weight":4725.1,"escalation":3,"distance_to_poi_km":1.148,"nearest_poi_name":"Pochara"},{"trip_id":"54209758","ts":"2026-04-01 22:20","duration_hrs":8.38,"lat":19.69837,"lng":78.50772,"net_weight":4725.1,"escalation":3,"distance_to_poi_km":1.148,"nearest_poi_name":"Pochara"},{"trip_id":"54209760","ts":"2026-04-01 22:20","duration_hrs":8.38,"lat":19.69837,"lng":78.50772,"net_weight":4725.1,"escalation":3,"distance_to_poi_km":1.148,"nearest_poi_name":"Pochara"},{"trip_id":"54229044","ts":"2026-04-01 22:20","duration_hrs":8.38,"lat":19.69837,"lng":78.50772,"net_weight":null,"escalation":3,"distance_to_poi_km":1.148,"nearest_poi_name":"Pochara"},{"trip_id":"55593469","ts":"2026-05-04 02:13","duration_hrs":5.28,"lat":19.69759,"lng":78.5065,"net_weight":null,"escalation":3,"distance_to_poi_km":1.028,"nearest_poi_name":"Pochara"},{"trip_id":"55575698","ts":"2026-05-04 02:13","duration_hrs":5.28,"lat":19.69759,"lng":78.5065,"net_weight":6272.4,"escalation":3,"distance_to_poi_km":1.028,"nearest_poi_name":"Pochara"}],"narrative":"Vehicle RJ23GC2565 keeps returning to this spot regardless of driver. 2 distinct drivers, 13 halts, median 8.0 hr. Either the vehicle has a routine refuelling habit here, or the spot is part of the vehicle's operating pattern.","estimated_exposure_inr":195698,"recommended_action":"Audit vehicle telematics and odometer reconciliation. Brief Redefine-Zepto on this vehicle's recurring detour.","verdict_id":"V-019"},{"type":"transporter_location","type_label":"Transporter-level recurrence","risk_score":85,"score_breakdown":{"frequency":25,"poi_absence":20,"duration":15,"night_share":10,"reefer":10,"cargo_value":0,"transparency":0,"escalation":5},"headline":"KK Transport-Zepto \u2014 11 drivers / 4 vehicles halting at Sellakkarichal area (25 events)","entities":{"transporter_branch":"KK Transport-Zepto","unique_drivers":11,"unique_vehicles":4},"location":{"cluster_id":"10.96500,77.16900","lat":10.9651,"lng":77.1696,"nearest_poi_name":"Sellakkarichal","nearest_poi_type":"unknown","nearest_poi_category":"unknown","distance_to_poi_km":1.9743,"label":"Sellakkarichal area"},"stats":{"count":25,"median_duration_hrs":2.65,"night_share":0.68,"reefer_share":0.84,"unique_drivers":11,"unique_vehicles":4},"evidence":[{"trip_id":"54572999","ts":"2026-04-10 01:22","duration_hrs":1.25,"lat":10.96638,"lng":77.16933,"net_weight":114.4,"escalation":2,"distance_to_poi_km":2.11,"nearest_poi_name":"Sellakkarichal"},{"trip_id":"54633334","ts":"2026-04-11 03:19","duration_hrs":9.87,"lat":10.9647,"lng":77.1698,"net_weight":null,"escalation":3,"distance_to_poi_km":1.934,"nearest_poi_name":"Sellakkarichal"},{"trip_id":"54822410","ts":"2026-04-16 02:40","duration_hrs":2.25,"lat":10.9651,"lng":77.1696,"net_weight":384.0,"escalation":3,"distance_to_poi_km":1.974,"nearest_poi_name":"Sellakkarichal"},{"trip_id":"54822284","ts":"2026-04-16 02:40","duration_hrs":2.25,"lat":10.9651,"lng":77.1696,"net_weight":384.0,"escalation":3,"distance_to_poi_km":1.974,"nearest_poi_name":"Sellakkarichal"},{"trip_id":"54822415","ts":"2026-04-16 02:40","duration_hrs":2.25,"lat":10.9651,"lng":77.1696,"net_weight":384.0,"escalation":3,"distance_to_poi_km":1.974,"nearest_poi_name":"Sellakkarichal"},{"trip_id":"54879808","ts":"2026-04-17 04:05","duration_hrs":0.75,"lat":10.9641,"lng":77.1698,"net_weight":null,"escalation":2,"distance_to_poi_km":1.868,"nearest_poi_name":"Sellakkarichal"},{"trip_id":"55139473","ts":"2026-04-22 22:53","duration_hrs":6.03,"lat":10.9636,"lng":77.17,"net_weight":null,"escalation":3,"distance_to_poi_km":1.818,"nearest_poi_name":"Sellakkarichal"},{"trip_id":"55231723","ts":"2026-04-25 01:14","duration_hrs":3.9,"lat":10.9637,"lng":77.1699,"net_weight":null,"escalation":3,"distance_to_poi_km":1.827,"nearest_poi_name":"Sellakkarichal"},{"trip_id":"55349979","ts":"2026-04-28 04:25","duration_hrs":1.62,"lat":10.9654,"lng":77.1695,"net_weight":null,"escalation":3,"distance_to_poi_km":2.006,"nearest_poi_name":"Sellakkarichal"},{"trip_id":"55387496","ts":"2026-04-29 01:10","duration_hrs":4.15,"lat":10.966,"lng":77.1694,"net_weight":1279.2,"escalation":3,"distance_to_poi_km":2.07,"nearest_poi_name":"Sellakkarichal"}],"narrative":"11 distinct drivers from KK Transport-Zepto converge at this spot \u2014 too widespread to be one driver's habit. 25 halts, median 2.6 hr, 68% at night. Pattern suggests the spot is institutionally known to this transporter.","estimated_exposure_inr":49316,"recommended_action":"Escalate at transporter SLA review. Ask KK Transport-Zepto ops to explain the operational reason for this Sellakkarichal area cluster.","verdict_id":"V-020"},{"type":"vehicle_location","type_label":"Vehicle-level recurrence","risk_score":84,"score_breakdown":{"frequency":25,"poi_absence":20,"duration":15,"night_share":14,"reefer":0,"cargo_value":5,"transparency":0,"escalation":5},"headline":"Vehicle NL01AF3177 \u2014 28 halts at Maruti Vihar area across 2 drivers","entities":{"vehicle_number":"NL01AF3177","vehicle_type":"32FT_TRUCK_MXL","transporter_branch":"Instant Transport Solution Pvt Ltd-Zepto","unique_drivers":2},"location":{"cluster_id":"30.24600,78.09900","lat":30.24576,"lng":78.098305,"nearest_poi_name":"Maruti Vihar","nearest_poi_type":"unknown","nearest_poi_category":"unknown","distance_to_poi_km":1.2689,"label":"Maruti Vihar area"},"stats":{"count":28,"median_duration_hrs":16.133333333333333,"night_share":0.9642857142857143,"reefer_share":0.0,"unique_drivers":2},"evidence":[{"trip_id":"53408712","ts":"2026-03-16 02:25","duration_hrs":16.13,"lat":30.24631,"lng":78.09774,"net_weight":9706.1,"escalation":3,"distance_to_poi_km":1.288,"nearest_poi_name":"Maruti Vihar"},{"trip_id":"53407991","ts":"2026-03-16 02:25","duration_hrs":16.13,"lat":30.24631,"lng":78.09774,"net_weight":9706.1,"escalation":3,"distance_to_poi_km":1.288,"nearest_poi_name":"Maruti Vihar"},{"trip_id":"53407989","ts":"2026-03-16 02:25","duration_hrs":16.13,"lat":30.24631,"lng":78.09774,"net_weight":9706.1,"escalation":3,"distance_to_poi_km":1.288,"nearest_poi_name":"Maruti Vihar"},{"trip_id":"53598382","ts":"2026-03-20 02:39","duration_hrs":2.2,"lat":30.24464,"lng":78.09928,"net_weight":6693.3,"escalation":3,"distance_to_poi_km":1.26,"nearest_poi_name":"Maruti Vihar"},{"trip_id":"53598373","ts":"2026-03-20 02:39","duration_hrs":2.2,"lat":30.24464,"lng":78.09928,"net_weight":6693.3,"escalation":3,"distance_to_poi_km":1.26,"nearest_poi_name":"Maruti Vihar"},{"trip_id":"53598326","ts":"2026-03-20 02:39","duration_hrs":2.2,"lat":30.24464,"lng":78.09928,"net_weight":6693.3,"escalation":3,"distance_to_poi_km":1.26,"nearest_poi_name":"Maruti Vihar"},{"trip_id":"53598356","ts":"2026-03-20 02:39","duration_hrs":2.2,"lat":30.24464,"lng":78.09928,"net_weight":6693.3,"escalation":3,"distance_to_poi_km":1.26,"nearest_poi_name":"Maruti Vihar"},{"trip_id":"53598374","ts":"2026-03-20 02:39","duration_hrs":2.2,"lat":30.24464,"lng":78.09928,"net_weight":6693.3,"escalation":3,"distance_to_poi_km":1.26,"nearest_poi_name":"Maruti Vihar"},{"trip_id":"53768076","ts":"2026-03-23 23:45","duration_hrs":12.63,"lat":30.2455,"lng":78.09853,"net_weight":8389.3,"escalation":3,"distance_to_poi_km":1.265,"nearest_poi_name":"Maruti Vihar"},{"trip_id":"53768065","ts":"2026-03-23 23:45","duration_hrs":12.63,"lat":30.2455,"lng":78.09853,"net_weight":8389.3,"escalation":3,"distance_to_poi_km":1.265,"nearest_poi_name":"Maruti Vihar"}],"narrative":"Vehicle NL01AF3177 keeps returning to this spot regardless of driver. 2 distinct drivers, 28 halts, median 16.1 hr. Either the vehicle has a routine refuelling habit here, or the spot is part of the vehicle's operating pattern.","estimated_exposure_inr":510855,"recommended_action":"Audit vehicle telematics and odometer reconciliation. Brief Instant Transport Solution Pvt Ltd-Zepto on this vehicle's recurring detour.","verdict_id":"V-021"},{"type":"transporter_location","type_label":"Transporter-level recurrence","risk_score":84,"score_breakdown":{"frequency":25,"poi_absence":20,"duration":15,"night_share":9,"reefer":10,"cargo_value":0,"transparency":0,"escalation":5},"headline":"SOFT TOUCH LOGISTICS-ZEPTO \u2014 4 drivers / 5 vehicles halting at Unknown spot (off-network) (33 events)","entities":{"transporter_branch":"SOFT TOUCH LOGISTICS-ZEPTO","unique_drivers":4,"unique_vehicles":5},"location":{"cluster_id":"26.70300,80.86200","lat":26.7024,"lng":80.8629,"nearest_poi_name":"Unnamed","nearest_poi_type":"gate","nearest_poi_category":"barrier","distance_to_poi_km":1.6167,"label":"Unknown spot (off-network)"},"stats":{"count":33,"median_duration_hrs":5.383333333333334,"night_share":0.5757575757575758,"reefer_share":0.9393939393939394,"unique_drivers":4,"unique_vehicles":5},"evidence":[{"trip_id":"53958621","ts":"2026-03-26 23:56","duration_hrs":6.72,"lat":26.7022,"lng":80.8623,"net_weight":null,"escalation":3,"distance_to_poi_km":1.591,"nearest_poi_name":"Unnamed"},{"trip_id":"54072090","ts":"2026-03-29 04:12","duration_hrs":2.37,"lat":26.7021,"lng":80.8633,"net_weight":null,"escalation":3,"distance_to_poi_km":1.669,"nearest_poi_name":"Unnamed"},{"trip_id":"54084488","ts":"2026-03-29 12:32","duration_hrs":3.02,"lat":26.7026,"lng":80.8633,"net_weight":null,"escalation":3,"distance_to_poi_km":1.631,"nearest_poi_name":"Unnamed"},{"trip_id":"54114556","ts":"2026-03-30 00:38","duration_hrs":6.05,"lat":26.7025,"lng":80.8633,"net_weight":null,"escalation":3,"distance_to_poi_km":1.638,"nearest_poi_name":"Unnamed"},{"trip_id":"54185627","ts":"2026-03-31 13:05","duration_hrs":2.07,"lat":26.7026,"lng":80.8632,"net_weight":null,"escalation":3,"distance_to_poi_km":1.623,"nearest_poi_name":"Unnamed"},{"trip_id":"54310020","ts":"2026-04-04 00:00","duration_hrs":6.65,"lat":26.7023,"lng":80.8622,"net_weight":234.0,"escalation":3,"distance_to_poi_km":1.576,"nearest_poi_name":"Unnamed"},{"trip_id":"54310020","ts":"2026-04-04 13:10","duration_hrs":1.9,"lat":26.7024,"lng":80.8633,"net_weight":234.0,"escalation":3,"distance_to_poi_km":1.646,"nearest_poi_name":"Unnamed"},{"trip_id":"54326736","ts":"2026-04-04 13:10","duration_hrs":1.9,"lat":26.7024,"lng":80.8633,"net_weight":357.1,"escalation":3,"distance_to_poi_km":1.646,"nearest_poi_name":"Unnamed"},{"trip_id":"54396189","ts":"2026-04-06 00:20","duration_hrs":7.35,"lat":26.7023,"lng":80.8626,"net_weight":null,"escalation":3,"distance_to_poi_km":1.604,"nearest_poi_name":"Unnamed"},{"trip_id":"54441231","ts":"2026-04-07 02:30","duration_hrs":3.87,"lat":26.7024,"lng":80.8629,"net_weight":null,"escalation":3,"distance_to_poi_km":1.617,"nearest_poi_name":"Unnamed"}],"narrative":"4 distinct drivers from SOFT TOUCH LOGISTICS-ZEPTO converge at this spot \u2014 too widespread to be one driver's habit. 33 halts, median 5.4 hr, 57% at night. Pattern suggests the spot is institutionally known to this transporter.","estimated_exposure_inr":18307,"recommended_action":"Escalate at transporter SLA review. Ask SOFT TOUCH LOGISTICS-ZEPTO ops to explain the operational reason for this Unknown spot (off-network) cluster.","verdict_id":"V-022"},{"type":"shadow_hotspot","type_label":"Network-level cluster","risk_score":82,"score_breakdown":{"frequency":25,"poi_absence":20,"duration":15,"night_share":7,"reefer":10,"cargo_value":0,"transparency":0,"escalation":5},"headline":"Recurring stop at Unknown spot (off-network) \u2014 7 drivers, 4 transporters, 41 halts","entities":{"unique_drivers":7,"unique_transporters":4,"unique_vehicles":8},"location":{"cluster_id":"26.70300,80.86200","lat":26.7024,"lng":80.8629,"nearest_poi_name":"Unnamed","nearest_poi_type":"gate","nearest_poi_category":"barrier","distance_to_poi_km":1.6167,"label":"Unknown spot (off-network)"},"stats":{"count":41,"median_duration_hrs":3.8666666666666667,"night_share":0.4878048780487805,"reefer_share":0.8780487804878049,"unique_drivers":7,"unique_transporters":4},"evidence":[{"trip_id":"53958621","ts":"2026-03-26 23:56","duration_hrs":6.72,"lat":26.7022,"lng":80.8623,"net_weight":null,"escalation":3,"distance_to_poi_km":1.591,"nearest_poi_name":"Unnamed"},{"trip_id":"53989497","ts":"2026-03-27 17:29","duration_hrs":2.83,"lat":26.70188,"lng":80.8633,"net_weight":650.9,"escalation":3,"distance_to_poi_km":1.686,"nearest_poi_name":"Unnamed"},{"trip_id":"54072090","ts":"2026-03-29 04:12","duration_hrs":2.37,"lat":26.7021,"lng":80.8633,"net_weight":null,"escalation":3,"distance_to_poi_km":1.669,"nearest_poi_name":"Unnamed"},{"trip_id":"54084488","ts":"2026-03-29 12:32","duration_hrs":3.02,"lat":26.7026,"lng":80.8633,"net_weight":null,"escalation":3,"distance_to_poi_km":1.631,"nearest_poi_name":"Unnamed"},{"trip_id":"54114556","ts":"2026-03-30 00:38","duration_hrs":6.05,"lat":26.7025,"lng":80.8633,"net_weight":null,"escalation":3,"distance_to_poi_km":1.638,"nearest_poi_name":"Unnamed"},{"trip_id":"54185627","ts":"2026-03-31 13:05","duration_hrs":2.07,"lat":26.7026,"lng":80.8632,"net_weight":null,"escalation":3,"distance_to_poi_km":1.623,"nearest_poi_name":"Unnamed"},{"trip_id":"54251006","ts":"2026-04-02 13:22","duration_hrs":1.57,"lat":26.7025,"lng":80.863,"net_weight":555.2,"escalation":3,"distance_to_poi_km":1.617,"nearest_poi_name":"Unnamed"},{"trip_id":"54310020","ts":"2026-04-04 00:00","duration_hrs":6.65,"lat":26.7023,"lng":80.8622,"net_weight":234.0,"escalation":3,"distance_to_poi_km":1.576,"nearest_poi_name":"Unnamed"},{"trip_id":"54251006","ts":"2026-04-04 00:00","duration_hrs":6.65,"lat":26.7023,"lng":80.8622,"net_weight":555.2,"escalation":3,"distance_to_poi_km":1.576,"nearest_poi_name":"Unnamed"},{"trip_id":"54310020","ts":"2026-04-04 13:10","duration_hrs":1.9,"lat":26.7024,"lng":80.8633,"net_weight":234.0,"escalation":3,"distance_to_poi_km":1.646,"nearest_poi_name":"Unnamed"}],"narrative":"This spot draws traffic from 7 drivers across 4 transporters. 41 halts, median 3.9 hr. Closest POI is Unnamed (1.62 km away). The convergence is wider than any single driver, indicating an operational pattern rather than an individual case.","estimated_exposure_inr":33335,"recommended_action":"On-ground reconnaissance of this location during a known transit window. Cross-check seal-break / weighbridge variance for trips passing here.","verdict_id":"V-023"},{"type":"shadow_hotspot","type_label":"Network-level cluster","risk_score":77,"score_breakdown":{"frequency":25,"poi_absence":20,"duration":15,"night_share":2,"reefer":10,"cargo_value":0,"transparency":0,"escalation":5},"headline":"Recurring stop at Unknown spot (off-network) \u2014 21 drivers, 4 transporters, 88 halts","entities":{"unique_drivers":21,"unique_transporters":4,"unique_vehicles":19},"location":{"cluster_id":"19.14600,73.12200","lat":19.146250000000002,"lng":73.1207,"nearest_poi_name":"Unnamed","nearest_poi_type":"gate","nearest_poi_category":"barrier","distance_to_poi_km":1.3876,"label":"Unknown spot (off-network)"},"stats":{"count":88,"median_duration_hrs":2.4916666666666667,"night_share":0.14772727272727273,"reefer_share":0.9772727272727273,"unique_drivers":21,"unique_transporters":4},"evidence":[{"trip_id":"53398023","ts":"2026-03-15 09:14","duration_hrs":5.83,"lat":19.1451,"lng":73.121,"net_weight":null,"escalation":3,"distance_to_poi_km":1.514,"nearest_poi_name":"Unnamed"},{"trip_id":"53864313","ts":"2026-03-25 18:12","duration_hrs":4.02,"lat":19.1462,"lng":73.1208,"net_weight":672.5,"escalation":3,"distance_to_poi_km":1.39,"nearest_poi_name":"Unnamed"},{"trip_id":"53931468","ts":"2026-03-26 15:37","duration_hrs":5.35,"lat":19.1464,"lng":73.1217,"net_weight":null,"escalation":3,"distance_to_poi_km":1.395,"nearest_poi_name":"Unnamed"},{"trip_id":"53969023","ts":"2026-03-27 13:24","duration_hrs":3.75,"lat":19.1466,"lng":73.1206,"net_weight":null,"escalation":3,"distance_to_poi_km":1.342,"nearest_poi_name":"Unnamed"},{"trip_id":"54074807","ts":"2026-03-29 04:15","duration_hrs":5.78,"lat":19.1469,"lng":73.1206,"net_weight":null,"escalation":3,"distance_to_poi_km":1.31,"nearest_poi_name":"Unnamed"},{"trip_id":"54337032","ts":"2026-04-04 13:21","duration_hrs":4.33,"lat":19.1464,"lng":73.1208,"net_weight":760.2,"escalation":3,"distance_to_poi_km":1.369,"nearest_poi_name":"Unnamed"},{"trip_id":"54338064","ts":"2026-04-04 13:21","duration_hrs":4.33,"lat":19.1464,"lng":73.1208,"net_weight":760.2,"escalation":3,"distance_to_poi_km":1.369,"nearest_poi_name":"Unnamed"},{"trip_id":"54337519","ts":"2026-04-04 13:21","duration_hrs":4.33,"lat":19.1464,"lng":73.1208,"net_weight":760.2,"escalation":3,"distance_to_poi_km":1.369,"nearest_poi_name":"Unnamed"},{"trip_id":"54337519","ts":"2026-04-04 17:43","duration_hrs":0.97,"lat":19.1461,"lng":73.1208,"net_weight":760.2,"escalation":2,"distance_to_poi_km":1.401,"nearest_poi_name":"Unnamed"},{"trip_id":"54337032","ts":"2026-04-04 17:43","duration_hrs":0.97,"lat":19.1461,"lng":73.1208,"net_weight":760.2,"escalation":2,"distance_to_poi_km":1.401,"nearest_poi_name":"Unnamed"}],"narrative":"This spot draws traffic from 21 drivers across 4 transporters. 88 halts, median 2.5 hr. Closest POI is Unnamed (1.39 km away). The convergence is wider than any single driver, indicating an operational pattern rather than an individual case.","estimated_exposure_inr":158397,"recommended_action":"On-ground reconnaissance of this location during a known transit window. Cross-check seal-break / weighbridge variance for trips passing here.","verdict_id":"V-024"},{"type":"shadow_hotspot","type_label":"Network-level cluster","risk_score":76,"score_breakdown":{"frequency":25,"poi_absence":10,"duration":15,"night_share":11,"reefer":10,"cargo_value":0,"transparency":0,"escalation":5},"headline":"Recurring stop at Sumanahalli Junction area \u2014 7 drivers, 4 transporters, 46 halts","entities":{"unique_drivers":7,"unique_transporters":4,"unique_vehicles":8},"location":{"cluster_id":"12.98700,77.52000","lat":12.986845,"lng":77.51922,"nearest_poi_name":"Sumanahalli Junction","nearest_poi_type":"traffic_signals","nearest_poi_category":"highway","distance_to_poi_km":0.0262,"label":"Sumanahalli Junction area"},"stats":{"count":46,"median_duration_hrs":3.066666666666667,"night_share":0.7608695652173914,"reefer_share":0.7608695652173914,"unique_drivers":7,"unique_transporters":4},"evidence":[{"trip_id":"54018478","ts":"2026-03-28 12:42","duration_hrs":1.1,"lat":12.98702,"lng":77.51986,"net_weight":null,"escalation":2,"distance_to_poi_km":0.007,"nearest_poi_name":"Sumanahalli Junction"},{"trip_id":"54243771","ts":"2026-04-02 03:19","duration_hrs":3.07,"lat":12.98692,"lng":77.51981,"net_weight":67.7,"escalation":3,"distance_to_poi_km":0.019,"nearest_poi_name":"Sumanahalli Junction"},{"trip_id":"54217042","ts":"2026-04-02 03:19","duration_hrs":3.07,"lat":12.98692,"lng":77.51981,"net_weight":718.0,"escalation":3,"distance_to_poi_km":0.019,"nearest_poi_name":"Sumanahalli Junction"},{"trip_id":"54246816","ts":"2026-04-02 03:19","duration_hrs":3.07,"lat":12.98692,"lng":77.51981,"net_weight":653.5,"escalation":3,"distance_to_poi_km":0.019,"nearest_poi_name":"Sumanahalli Junction"},{"trip_id":"54215540","ts":"2026-04-02 03:19","duration_hrs":3.07,"lat":12.98692,"lng":77.51981,"net_weight":718.0,"escalation":3,"distance_to_poi_km":0.019,"nearest_poi_name":"Sumanahalli Junction"},{"trip_id":"54272018","ts":"2026-04-02 22:33","duration_hrs":0.57,"lat":12.9856,"lng":77.51906,"net_weight":354.0,"escalation":1,"distance_to_poi_km":0.034,"nearest_poi_name":"Unnamed"},{"trip_id":"54272030","ts":"2026-04-02 22:33","duration_hrs":0.57,"lat":12.9856,"lng":77.51906,"net_weight":354.0,"escalation":1,"distance_to_poi_km":0.034,"nearest_poi_name":"Unnamed"},{"trip_id":"54272035","ts":"2026-04-02 22:33","duration_hrs":0.57,"lat":12.9856,"lng":77.51906,"net_weight":354.0,"escalation":1,"distance_to_poi_km":0.034,"nearest_poi_name":"Unnamed"},{"trip_id":"54272031","ts":"2026-04-02 22:33","duration_hrs":0.57,"lat":12.9856,"lng":77.51906,"net_weight":354.0,"escalation":1,"distance_to_poi_km":0.034,"nearest_poi_name":"Unnamed"},{"trip_id":"54272125","ts":"2026-04-02 22:33","duration_hrs":0.57,"lat":12.9856,"lng":77.51906,"net_weight":354.0,"escalation":1,"distance_to_poi_km":0.034,"nearest_poi_name":"Unnamed"}],"narrative":"This spot draws traffic from 7 drivers across 4 transporters. 46 halts, median 3.1 hr. Closest POI is Sumanahalli Junction (0.03 km away). The convergence is wider than any single driver, indicating an operational pattern rather than an individual case.","estimated_exposure_inr":39086,"recommended_action":"On-ground reconnaissance of this location during a known transit window. Cross-check seal-break / weighbridge variance for trips passing here.","verdict_id":"V-025"}]}